# Block end with "$GPGLL"
$GPRMC,014759.00,A,3342.89759,S,15109.66304,E,1.845,,141214,,,A*6F
$GPVTG,,T,,M,1.845,N,3.418,K,A*25
$GPGGA,014759.00,3342.89759,S,15109.66304,E,1,05,17.44,114.7,M,19.7,M,,*77
$GPGSA,A,3,09,07,19,11,30,,,,,,,,22.43,17.44,14.10*32
$GPGSV,4,1,13,01,14,076,,04,11,106,18,05,08,281,,07,40,082,24*78
$GPGSV,4,2,13,09,14,016,14,10,01,330,,11,25,099,20,13,62,257,*70
$GPGSV,4,3,13,17,37,350,08,19,12,141,15,26,36,228,,28,66,227,08*77
$GPGSV,4,4,13,30,67,128,22*42
$GPGLL,3342.89759,S,15109.66304,E,014759.00,A,A*7D
$GPRMC,014800.00,A,3342.89724,S,15109.66321,E,1.205,,141214,,,A*6F
$GPVTG,,T,,M,1.205,N,2.231,K,A*27
$GPGGA,014800.00,3342.89724,S,15109.66321,E,1,07,3.83,115.2,M,19.7,M,,*41
$GPGSA,A,3,09,28,07,19,11,30,17,,,,,,5.68,3.83,4.19*04
$GPGSV,4,1,13,01,14,076,,04,11,106,18,05,08,281,,07,40,082,25*79
$GPGSV,4,2,13,09,14,016,13,10,01,330,,11,25,099,21,13,62,257,*76
$GPGSV,4,3,13,17,37,350,11,19,12,141,15,26,36,228,,28,66,227,13*75
$GPGSV,4,4,13,30,67,128,23*43
$GPGLL,3342.89724,S,15109.66321,E,014800.00,A,A*73
$GPRMC,014801.00,A,3342.89982,S,15109.66534,E,1.005,,141214,,,A*6C
$GPVTG,,T,,M,1.005,N,1.861,K,A*29
$GPGGA,014801.00,3342.89982,S,15109.66534,E,1,06,1.49,116.3,M,19.7,M,,*47
$GPGSA,A,3,09,28,07,19,11,30,,,,,,,2.28,1.49,1.72*0D
$GPGSV,4,1,13,01,14,076,,04,11,106,18,05,08,281,,07,40,082,25*79
$GPGSV,4,2,13,09,14,016,13,10,01,330,,11,25,099,21,13,62,257,*76
$GPGSV,4,3,13,17,37,350,,19,12,141,15,26,36,228,,28,66,227,16*70
$GPGSV,4,4,13,30,67,128,23*43
$GPGLL,3342.89982,S,15109.66534,E,014801.00,A,A*72
$GPRMC,014802.00,A,3342.90027,S,15109.66586,E,0.613,,141214,,,A*68
$GPVTG,,T,,M,0.613,N,1.136,K,A*22
$GPGGA,014802.00,3342.90027,S,15109.66586,E,1,07,1.49,116.9,M,19.7,M,,*48
$GPGSA,A,3,09,28,07,19,11,30,17,,,,,,2.27,1.49,1.72*04
$GPGSV,4,1,13,01,14,076,,04,11,106,18,05,08,281,,07,40,082,25*79
$GPGSV,4,2,13,09,14,016,14,10,01,330,,11,25,099,21,13,62,257,*71
$GPGSV,4,3,13,17,37,350,16,19,12,141,15,26,36,228,,28,66,227,18*79
$GPGSV,4,4,13,30,67,128,23*43
$GPGLL,3342.90027,S,15109.66586,E,014802.00,A,A*76
$GPRMC,014803.00,A,3342.90032,S,15109.66571,E,0.149,,141214,,,A*6D
$GPVTG,,T,,M,0.149,N,0.276,K,A*2C
$GPGGA,014803.00,3342.90032,S,15109.66571,E,1,07,1.49,117.5,M,19.7,M,,*48
$GPGSA,A,3,09,28,07,19,11,30,17,,,,,,2.27,1.49,1.72*04
$GPGSV,4,1,13,01,14,076,,04,11,106,17,05,08,281,,07,40,082,25*76
$GPGSV,4,2,13,09,14,016,15,10,01,330,,11,25,099,21,13,62,257,*70
$GPGSV,4,3,13,17,37,350,13,19,12,141,15,26,36,228,,28,66,227,19*7D
$GPGSV,4,4,13,30,67,128,23*43
$GPGLL,3342.90032,S,15109.66571,E,014803.00,A,A*7B
$GPRMC,014804.00,A,3342.90121,S,15109.66581,E,0.570,,141214,,,A*68
$GPVTG,,T,,M,0.570,N,1.056,K,A*23
$GPGGA,014804.00,3342.90121,S,15109.66581,E,1,07,1.49,118.2,M,19.7,M,,*4B
$GPGSA,A,3,09,28,07,19,11,30,17,,,,,,2.27,1.49,1.72*04
$GPGSV,4,1,13,01,14,076,20,04,11,106,17,05,08,281,,07,40,082,25*74
$GPGSV,4,2,13,09,14,016,16,10,01,330,15,11,25,099,21,13,62,257,*77
$GPGSV,4,3,13,17,37,350,12,19,12,141,14,26,36,228,,28,66,227,19*7D
$GPGSV,4,4,13,30,67,128,23*43
$GPGLL,3342.90121,S,15109.66581,E,014804.00,A,A*70
$GPRMC,014805.00,A,3342.90133,S,15109.66520,E,0.687,,141214,,,A*6A
$GPVTG,,T,,M,0.687,N,1.272,K,A*2C
$GPGGA,014805.00,3342.90133,S,15109.66520,E,1,06,1.49,118.7,M,19.7,M,,*46
$GPGSA,A,3,09,28,07,19,11,30,,,,,,,2.27,1.49,1.72*02
$GPGSV,4,1,13,01,14,076,17,04,11,106,18,05,08,281,,07,40,082,25*7F
$GPGSV,4,2,13,09,14,016,15,10,01,330,18,11,25,099,21,13,62,257,*79
$GPGSV,4,3,13,17,37,350,09,19,12,141,13,26,36,228,,28,66,227,18*71
$GPGSV,4,4,13,30,67,128,22*42
$GPGLL,3342.90133,S,15109.66520,E,014805.00,A,A*79
$GPRMC,014806.00,A,3342.90219,S,15109.66525,E,1.069,,141214,,,A*60
$GPVTG,,T,,M,1.069,N,1.979,K,A*2B
$GPGGA,014806.00,3342.90219,S,15109.66525,E,1,06,1.49,119.4,M,19.7,M,,*49
$GPGSA,A,3,09,28,07,19,11,30,,,,,,,2.27,1.49,1.72*02
$GPGSV,4,1,13,01,14,076,,04,11,106,18,05,08,281,,07,40,082,26*7A
$GPGSV,4,2,13,09,14,016,15,10,01,330,17,11,25,099,22,13,62,257,18*7C
$GPGSV,4,3,13,17,37,350,,19,12,141,15,26,36,228,23,28,66,227,17*70
$GPGSV,4,4,13,30,67,128,23*43
$GPGLL,3342.90219,S,15109.66525,E,014806.00,A,A*74
$GPRMC,014807.00,A,3342.90252,S,15109.66550,E,0.841,,141214,,,A*6F
$GPVTG,,T,,M,0.841,N,1.558,K,A*27
$GPGGA,014807.00,3342.90252,S,15109.66550,E,1,06,1.49,119.9,M,19.7,M,,*48
$GPGSA,A,3,09,28,07,19,11,30,,,,,,,2.27,1.49,1.72*02
$GPGSV,4,1,13,01,14,076,,04,11,106,17,05,08,281,,07,40,082,25*76
$GPGSV,4,2,13,09,14,016,13,10,01,330,,11,25,099,20,13,62,257,14*72
$GPGSV,4,3,13,17,37,350,,19,12,141,15,26,36,228,19,28,66,227,15*7B
$GPGSV,4,4,13,30,67,128,23*43
$GPGLL,3342.90252,S,15109.66550,E,014807.00,A,A*78
$GPRMC,014808.00,A,3342.90260,S,15109.66516,E,0.734,,141214,,,A*6E
$GPVTG,,T,,M,0.734,N,1.359,K,A*2D
$GPGGA,014808.00,3342.90260,S,15109.66516,E,1,06,1.49,120.4,M,19.7,M,,*43
$GPGSA,A,3,09,28,07,19,11,30,,,,,,,2.27,1.49,1.71*01
$GPGSV,4,1,13,01,14,076,,04,11,106,17,05,08,281,,07,40,082,25*76
$GPGSV,4,2,13,09,14,016,13,10,01,330,17,11,25,099,20,13,62,257,09*78
$GPGSV,4,3,13,17,37,350,,19,12,141,16,26,36,228,,28,66,227,16*73
$GPGSV,4,4,13,30,67,128,23*43
$GPGLL,3342.90260,S,15109.66516,E,014808.00,A,A*74
$GPRMC,014809.00,A,3342.90241,S,15109.66518,E,0.285,,141214,,,A*6D
$GPVTG,,T,,M,0.285,N,0.528,K,A*23
$GPGGA,014809.00,3342.90241,S,15109.66518,E,1,06,1.49,121.0,M,19.7,M,,*4A
$GPGSA,A,3,09,28,07,19,11,30,,,,,,,2.27,1.49,1.71*01
$GPGSV,4,1,13,01,14,076,,04,11,106,17,05,08,281,,07,40,082,25*76
$GPGSV,4,2,13,09,14,016,13,10,01,330,16,11,25,099,20,13,62,257,08*78
$GPGSV,4,3,13,17,37,350,,19,12,141,15,26,36,228,,28,66,227,16*70
$GPGSV,4,4,13,30,67,128,23*43
$GPGLL,3342.90241,S,15109.66518,E,014809.00,A,A*78
$GPRMC,014810.00,A,3342.90195,S,15109.66452,E,0.598,,141214,,,A*6B
$GPVTG,,T,,M,0.598,N,1.107,K,A*20
$GPGGA,014810.00,3342.90195,S,15109.66452,E,1,06,1.49,121.5,M,19.7,M,,*42
$GPGSA,A,3,09,28,07,19,11,30,,,,,,,2.27,1.49,1.71*01
$GPGSV,4,1,13,01,14,076,20,04,11,106,17,05,08,281,,07,40,082,25*74
$GPGSV,4,2,13,09,14,016,13,10,01,330,14,11,25,099,19,13,62,257,09*71
$GPGSV,4,3,13,17,37,350,,19,12,141,14,26,36,228,,28,66,227,16*71
$GPGSV,4,4,13,30,67,128,23*43
$GPGLL,3342.90195,S,15109.66452,E,014810.00,A,A*75
$GPRMC,014811.00,A,3342.90133,S,15109.66392,E,1.156,,141214,,,A*6A
$GPVTG,,T,,M,1.156,N,2.141,K,A*26
$GPGGA,014811.00,3342.90133,S,15109.66392,E,1,06,1.49,122.0,M,19.7,M,,*42
$GPGSA,A,3,09,28,07,19,11,30,,,,,,,2.27,1.49,1.71*01
$GPGSV,4,1,13,01,14,076,19,04,11,106,15,05,08,281,,07,40,082,25*7C
$GPGSV,4,2,13,09,14,016,12,10,01,330,10,11,25,099,19,13,62,257,08*75
$GPGSV,4,3,13,17,37,350,14,19,12,141,14,26,36,228,,28,66,227,16*74
$GPGSV,4,4,13,30,67,128,23*43
$GPGLL,3342.90133,S,15109.66392,E,014811.00,A,A*73
$GPRMC,014812.00,A,3342.90108,S,15109.66363,E,1.065,,141214,,,A*6E
$GPVTG,,T,,M,1.065,N,1.972,K,A*2C
$GPGGA,014812.00,3342.90108,S,15109.66363,E,1,06,1.49,122.5,M,19.7,M,,*42
$GPGSA,A,3,09,28,07,19,11,30,,,,,,,2.27,1.49,1.71*01
$GPGSV,4,1,13,01,14,076,19,04,11,106,15,05,08,281,,07,40,082,25*7C
$GPGSV,4,2,13,09,14,016,13,10,01,330,,11,25,099,20,13,62,257,09*7E
$GPGSV,4,3,13,17,37,350,12,19,12,141,14,26,36,228,,28,66,227,14*70
$GPGSV,4,4,13,30,67,128,23*43
$GPGLL,3342.90108,S,15109.66363,E,014812.00,A,A*76
$GPRMC,014813.00,A,3342.90042,S,15109.66362,E,1.339,,141214,,,A*6B
$GPVTG,,T,,M,1.339,N,2.480,K,A*25
$GPGGA,014813.00,3342.90042,S,15109.66362,E,1,07,1.49,122.8,M,19.7,M,,*41
$GPGSA,A,3,09,28,07,19,11,30,17,,,,,,2.27,1.49,1.71*07
$GPGSV,4,1,13,01,14,076,20,04,11,106,15,05,08,281,,07,40,082,25*76
$GPGSV,4,2,13,09,14,016,14,10,01,330,,11,25,099,21,13,62,257,11*71
$GPGSV,4,3,13,17,37,350,14,19,12,141,15,26,36,228,,28,66,227,12*71
$GPGSV,4,4,13,30,67,128,23*43
$GPGLL,3342.90042,S,15109.66362,E,014813.00,A,A*79
$GPRMC,014814.00,A,3342.90016,S,15109.66357,E,1.218,,141214,,,A*69
$GPVTG,,T,,M,1.218,N,2.256,K,A*2A
$GPGGA,014814.00,3342.90016,S,15109.66357,E,1,07,1.49,123.2,M,19.7,M,,*4A
$GPGSA,A,3,09,28,07,19,11,30,17,,,,,,2.27,1.49,1.71*07
$GPGSV,4,1,13,01,14,076,20,04,11,106,15,05,08,281,,07,40,082,25*76
$GPGSV,4,2,13,09,14,016,13,10,01,330,,11,25,099,20,13,62,257,11*77
$GPGSV,4,3,13,17,37,350,14,19,12,141,15,26,36,228,,28,66,227,10*73
$GPGSV,4,4,13,30,67,128,24*44
$GPGLL,3342.90016,S,15109.66357,E,014814.00,A,A*79
$GPRMC,014815.00,A,3342.89913,S,15109.66260,E,1.829,,141214,,,A*61
$GPVTG,,T,,M,1.829,N,3.387,K,A*2E
$GPGGA,014815.00,3342.89913,S,15109.66260,E,1,07,1.38,123.6,M,19.7,M,,*48
$GPGSA,A,3,09,28,07,19,11,30,17,,,,,,2.20,1.38,1.71*06
$GPGSV,4,1,13,01,14,076,20,04,11,106,15,05,08,281,,07,40,082,25*76
$GPGSV,4,2,13,09,14,016,12,10,01,330,16,11,25,099,20,13,62,257,10*70
$GPGSV,4,3,13,17,37,350,14,19,12,141,15,26,36,228,,28,66,227,11*72
$GPGSV,4,4,13,30,67,128,22*42
$GPGLL,3342.89913,S,15109.66260,E,014815.00,A,A*79
$GPRMC,014816.00,A,3342.89706,S,15109.66235,E,2.950,,141214,,,A*64
$GPVTG,,T,,M,2.950,N,5.463,K,A*29
$GPGGA,014816.00,3342.89706,S,15109.66235,E,1,07,1.38,124.1,M,19.7,M,,*41
$GPGSA,A,3,09,28,07,19,11,30,17,,,,,,2.20,1.38,1.71*06
$GPGSV,4,1,13,01,14,076,20,04,11,106,14,05,08,281,,07,40,082,25*77
$GPGSV,4,2,13,09,14,016,12,10,01,330,14,11,25,099,20,13,62,257,09*7A
$GPGSV,4,3,13,17,37,350,13,19,12,141,12,26,36,228,,28,66,227,12*71
$GPGSV,4,4,13,30,67,128,22*42
$GPGLL,3342.89706,S,15109.66235,E,014816.00,A,A*70
$GPRMC,014817.00,A,3342.89659,S,15109.66185,E,2.686,,141214,,,A*62
$GPVTG,,T,,M,2.686,N,4.974,K,A*27
$GPGGA,014817.00,3342.89659,S,15109.66185,E,1,05,4.30,124.4,M,19.7,M,,*49
$GPGSA,A,3,09,07,11,30,17,,,,,,,,6.45,4.30,4.80*05
$GPGSV,4,1,13,01,14,076,19,04,11,106,14,05,08,281,,07,40,082,26*7E
$GPGSV,4,2,13,09,14,016,14,10,01,330,10,11,25,099,20,13,62,257,08*79
$GPGSV,4,3,13,17,37,350,14,19,12,141,09,26,36,228,,28,66,227,*7F
$GPGSV,4,4,13,30,67,128,22*42
$GPGLL,3342.89659,S,15109.66185,E,014817.00,A,A*72
$GPRMC,014818.00,A,3342.89668,S,15109.66219,E,1.970,,141214,,,A*6C
$GPVTG,,T,,M,1.970,N,3.648,K,A*25
$GPGGA,014818.00,3342.89668,S,15109.66219,E,1,05,4.30,124.8,M,19.7,M,,*4E
$GPGSA,A,3,09,07,11,30,17,,,,,,,,6.44,4.30,4.80*04
$GPGSV,4,1,13,01,14,076,19,04,11,106,14,05,08,281,,07,40,082,25*7D
$GPGSV,4,2,13,09,14,016,15,10,01,330,10,11,25,099,19,13,62,257,08*72
$GPGSV,4,3,13,17,37,350,15,19,12,141,,26,36,228,,28,66,227,*77
$GPGSV,4,4,13,30,67,128,22*42
$GPGLL,3342.89668,S,15109.66219,E,014818.00,A,A*79
$GPRMC,014819.00,A,3342.89724,S,15109.66228,E,0.963,,141214,,,A*65
$GPVTG,,T,,M,0.963,N,1.783,K,A*22
$GPGGA,014819.00,3342.89724,S,15109.66228,E,1,05,4.30,125.1,M,19.7,M,,*4C
$GPGSA,A,3,09,07,11,30,17,,,,,,,,6.44,4.30,4.79*02
$GPGSV,4,1,13,01,14,076,20,04,11,106,13,05,08,281,,07,40,082,26*73
$GPGSV,4,2,13,09,14,016,14,10,01,330,10,11,25,099,19,13,62,257,08*73
$GPGSV,4,3,13,17,37,350,15,19,12,141,05,26,36,228,,28,66,227,*72
$GPGSV,4,4,13,30,67,128,22*42
$GPGLL,3342.89724,S,15109.66228,E,014819.00,A,A*73
$GPRMC,014820.00,A,3342.89799,S,15109.66197,E,0.135,,141214,,,A*65
$GPVTG,,T,,M,0.135,N,0.249,K,A*2B
$GPGGA,014820.00,3342.89799,S,15109.66197,E,1,05,4.30,125.6,M,19.7,M,,*40
$GPGSA,A,3,09,07,11,30,17,,,,,,,,6.44,4.30,4.79*02
$GPGSV,4,1,13,01,14,076,20,04,11,106,15,05,08,281,,07,40,082,26*75
$GPGSV,4,2,13,09,14,016,14,10,01,330,10,11,25,099,20,13,62,257,08*79
$GPGSV,4,3,13,17,37,350,15,19,12,141,08,26,36,228,,28,66,227,*7F
$GPGSV,4,4,13,30,67,128,22*42
$GPGLL,3342.89799,S,15109.66197,E,014820.00,A,A*78
$GPRMC,014821.00,A,3342.89749,S,15109.66140,E,0.761,,141214,,,A*64
$GPVTG,,T,,M,0.761,N,1.409,K,A*2F
$GPGGA,014821.00,3342.89749,S,15109.66140,E,1,05,4.30,125.9,M,19.7,M,,*49
$GPGSA,A,3,09,07,11,30,17,,,,,,,,6.44,4.30,4.79*02
$GPGSV,4,1,13,01,14,076,20,04,11,106,14,05,08,281,,07,40,082,26*74
$GPGSV,4,2,13,09,14,016,15,10,01,330,,11,25,099,19,13,62,257,08*73
$GPGSV,4,3,13,17,37,350,16,19,12,141,12,26,36,228,,28,66,227,*77
$GPGSV,4,4,13,30,67,128,23*43
$GPGLL,3342.89749,S,15109.66140,E,014821.00,A,A*7E
$GPRMC,014822.00,A,3342.89736,S,15109.66107,E,0.952,,141214,,,A*62
$GPVTG,,T,,M,0.952,N,1.763,K,A*2E
$GPGGA,014822.00,3342.89736,S,15109.66107,E,1,06,4.30,126.2,M,19.7,M,,*4A
$GPGSA,A,3,09,07,19,11,30,17,,,,,,,6.44,4.30,4.79*0A
$GPGSV,4,1,13,01,14,076,19,04,11,106,15,05,08,281,,07,40,082,26*7F
$GPGSV,4,2,13,09,14,016,15,10,01,330,,11,25,099,20,13,62,257,08*79
$GPGSV,4,3,13,17,37,350,16,19,12,141,14,26,36,228,,28,66,227,*71
$GPGSV,4,4,13,30,67,128,22*42
$GPGLL,3342.89736,S,15109.66107,E,014822.00,A,A*76
$GPRMC,014823.00,A,3342.89685,S,15109.66091,E,1.522,,141214,,,A*6E
$GPVTG,,T,,M,1.522,N,2.819,K,A*25
$GPGGA,014823.00,3342.89685,S,15109.66091,E,1,06,4.45,126.6,M,19.7,M,,*4A
$GPGSA,A,3,09,28,07,19,11,30,,,,,,,6.55,4.45,4.80*02
$GPGSV,4,1,13,01,14,076,18,04,11,106,16,05,08,281,,07,40,082,25*7E
$GPGSV,4,2,13,09,14,016,14,10,01,330,,11,25,099,18,13,62,257,07*7C
$GPGSV,4,3,13,17,37,350,,19,12,141,11,26,36,228,,28,66,227,22*73
$GPGSV,4,4,13,30,67,128,22*42
$GPGLL,3342.89685,S,15109.66091,E,014823.00,A,A*70
$GPRMC,014824.00,A,3342.89691,S,15109.66056,E,1.496,,141214,,,A*69
$GPVTG,,T,,M,1.496,N,2.770,K,A*2B
$GPGGA,014824.00,3342.89691,S,15109.66056,E,1,04,4.45,127.0,M,19.7,M,,*46
$GPGSA,A,3,09,07,11,30,,,,,,,,,6.55,4.45,4.80*00
$GPGSV,4,1,13,01,14,076,18,04,11,106,16,05,08,281,,07,40,082,25*7E
$GPGSV,4,2,13,09,14,016,14,10,01,330,,11,25,099,17,13,62,257,*74
$GPGSV,4,3,13,17,37,350,,19,12,141,09,26,36,228,,28,66,227,19*72
$GPGSV,4,4,13,30,67,128,22*42
$GPGLL,3342.89691,S,15109.66056,E,014824.00,A,A*79
$GPRMC,014825.00,A,3342.89761,S,15109.66080,E,0.859,,141214,,,A*63
$GPVTG,,T,,M,0.859,N,1.590,K,A*2A
$GPGGA,014825.00,3342.89761,S,15109.66080,E,1,04,4.45,127.3,M,19.7,M,,*41
$GPGSA,A,3,09,07,11,30,,,,,,,,,6.55,4.45,4.80*00
$GPGSV,4,1,13,01,14,076,17,04,11,106,17,05,08,281,,07,40,082,25*70
$GPGSV,4,2,13,09,14,016,15,10,01,330,,11,25,099,17,13,62,257,*75
$GPGSV,4,3,13,17,37,350,,19,12,141,08,26,36,228,,28,66,227,15*7F
$GPGSV,4,4,13,30,67,128,21*41
$GPGLL,3342.89761,S,15109.66080,E,014825.00,A,A*7D
$GPRMC,014826.00,A,3342.89819,S,15109.66158,E,1.100,,141214,,,A*60
$GPVTG,,T,,M,1.100,N,2.037,K,A*25
$GPGGA,014826.00,3342.89819,S,15109.66158,E,1,04,4.45,127.8,M,19.7,M,,*4D
$GPGSA,A,3,09,07,11,30,,,,,,,,,6.55,4.45,4.80*00
$GPGSV,4,1,13,01,14,076,17,04,11,106,17,05,08,281,,07,40,082,26*73
$GPGSV,4,2,13,09,14,016,16,10,01,330,,11,25,099,17,13,62,257,*76
$GPGSV,4,3,13,17,37,350,,19,12,141,08,26,36,228,,28,66,227,15*7F
$GPGSV,4,4,13,30,67,128,22*42
$GPGLL,3342.89819,S,15109.66158,E,014826.00,A,A*7A
$GPRMC,014827.00,A,3342.89773,S,15109.66247,E,1.666,,141214,,,A*68
$GPVTG,,T,,M,1.666,N,3.086,K,A*29
$GPGGA,014827.00,3342.89773,S,15109.66247,E,1,06,2.54,128.3,M,19.7,M,,*42
$GPGSA,A,3,09,28,07,11,30,17,,,,,,,4.66,2.54,3.90*0E
$GPGSV,4,1,13,01,14,076,18,04,11,106,16,05,08,281,,07,40,082,26*7D
$GPGSV,4,2,13,09,14,016,15,10,01,330,,11,25,099,18,13,62,257,*7A
$GPGSV,4,3,13,17,37,350,18,19,12,141,08,26,36,228,,28,66,227,15*76
$GPGSV,4,4,13,30,67,128,21*41
$GPGLL,3342.89773,S,15109.66247,E,014827.00,A,A*75
$GPRMC,014828.00,A,3342.90105,S,15109.66347,E,2.118,,141214,,,A*64
$GPVTG,,T,,M,2.118,N,3.922,K,A*23
$GPGGA,014828.00,3342.90105,S,15109.66347,E,1,07,1.49,127.4,M,19.7,M,,*45
$GPGSA,A,3,09,28,07,19,11,30,17,,,,,,2.27,1.49,1.71*07
$GPGSV,4,1,13,01,14,076,19,04,11,106,16,05,08,281,,07,40,082,26*7C
$GPGSV,4,2,13,09,14,016,15,10,01,330,,11,25,099,18,13,62,257,*7A
$GPGSV,4,3,13,17,37,350,17,19,12,141,08,26,36,228,,28,66,227,15*79
$GPGSV,4,4,13,30,67,128,21*41
$GPGLL,3342.90105,S,15109.66347,E,014828.00,A,A*74
$GPRMC,014829.00,A,3342.90533,S,15109.66262,E,3.808,99.62,141214,,,A*41
$GPVTG,99.62,T,,M,3.808,N,7.053,K,A*0B
$GPGGA,014829.00,3342.90533,S,15109.66262,E,1,07,1.49,126.4,M,19.7,M,,*42
$GPGSA,A,3,09,28,07,19,11,30,17,,,,,,2.27,1.49,1.71*07
$GPGSV,4,1,13,01,14,076,18,04,11,106,17,05,08,281,,07,40,082,26*7C
$GPGSV,4,2,13,09,14,016,14,10,01,330,,11,25,099,17,13,62,257,*74
$GPGSV,4,3,13,17,37,350,16,19,12,141,08,26,36,228,,28,66,227,15*78
$GPGSV,4,4,13,30,67,128,20*40
$GPGLL,3342.90533,S,15109.66262,E,014829.00,A,A*72
$GPRMC,014830.00,A,3342.90915,S,15109.66167,E,5.260,149.38,141214,,,A*76
$GPVTG,149.38,T,,M,5.260,N,9.741,K,A*30
$GPGGA,014830.00,3342.90915,S,15109.66167,E,1,07,1.49,125.2,M,19.7,M,,*41
$GPGSA,A,3,09,28,07,19,11,30,17,,,,,,2.27,1.49,1.71*07
$GPGSV,4,1,13,01,14,076,18,04,11,106,17,05,08,281,,07,40,082,25*7F
$GPGSV,4,2,13,09,14,016,13,10,01,330,,11,25,099,16,13,62,257,*72
$GPGSV,4,3,13,17,37,350,15,19,12,141,08,26,36,228,,28,66,227,13*7D
$GPGSV,4,4,13,30,67,128,20*40
$GPGLL,3342.90915,S,15109.66167,E,014830.00,A,A*74
$GPRMC,014831.00,A,3342.91241,S,15109.66118,E,6.209,166.35,141214,,,A*78
$GPVTG,166.35,T,,M,6.209,N,11.498,K,A*02
$GPGGA,014831.00,3342.91241,S,15109.66118,E,1,07,1.38,123.8,M,19.7,M,,*49
$GPGSA,A,3,09,28,07,19,11,30,17,,,,,,2.19,1.38,1.70*0D
$GPGSV,4,1,13,01,14,076,17,04,11,106,16,05,08,281,,07,40,082,25*71
$GPGSV,4,2,13,09,14,016,12,10,01,330,,11,25,099,16,13,62,257,*73
$GPGSV,4,3,13,17,37,350,14,19,12,141,08,26,36,228,,28,66,227,13*7C
$GPGSV,4,4,13,30,67,128,18*4B
$GPGLL,3342.91241,S,15109.66118,E,014831.00,A,A*76
$GPRMC,014832.00,A,3342.91644,S,15109.66030,E,7.631,175.64,141214,,,A*79
$GPVTG,175.64,T,,M,7.631,N,14.132,K,A*0A
$GPGGA,014832.00,3342.91644,S,15109.66030,E,1,07,1.38,122.2,M,19.7,M,,*4B
$GPGSA,A,3,09,28,07,19,11,30,17,,,,,,2.19,1.38,1.70*0D
$GPGSV,4,1,13,01,14,076,19,04,11,106,15,05,08,281,,07,40,082,25*7C
$GPGSV,4,2,13,09,14,016,10,10,01,330,,11,25,099,16,13,62,257,*71
$GPGSV,4,3,13,17,37,350,14,19,12,141,08,26,36,228,,28,66,227,14*7B
$GPGSV,4,4,13,30,67,128,18*4B
$GPGLL,3342.91644,S,15109.66030,E,014832.00,A,A*7F
$GPRMC,014833.00,A,3342.91773,S,15109.65986,E,7.045,180.77,141214,,,A*77
$GPVTG,180.77,T,,M,7.045,N,13.047,K,A*03
$GPGGA,014833.00,3342.91773,S,15109.65986,E,1,06,2.54,122.3,M,19.7,M,,*41
$GPGSA,A,3,09,28,07,19,11,30,,,,,,,4.65,2.54,3.89*0B
$GPGSV,4,1,13,01,14,076,19,04,11,106,16,05,08,281,,07,40,082,25*7F
$GPGSV,4,2,13,09,14,016,11,10,01,330,,11,25,099,17,13,62,257,*71
$GPGSV,4,3,13,17,37,350,,19,12,141,17,26,36,228,,28,66,227,14*70
$GPGSV,4,4,13,30,67,128,18*4B
$GPGLL,3342.91773,S,15109.65986,E,014833.00,A,A*7C
$GPRMC,014834.00,A,3342.91848,S,15109.65996,E,6.085,183.42,141214,,,A*7E
$GPVTG,183.42,T,,M,6.085,N,11.270,K,A*0F
$GPGGA,014834.00,3342.91848,S,15109.65996,E,1,06,2.54,122.2,M,19.7,M,,*41
$GPGSA,A,3,09,28,07,19,11,30,,,,,,,4.65,2.54,3.89*0B
$GPGSV,4,1,13,01,14,076,19,04,11,106,16,05,08,281,,07,40,082,26*7C
$GPGSV,4,2,13,09,14,016,12,10,01,330,,11,25,099,17,13,62,257,*72
$GPGSV,4,3,13,17,37,350,,19,12,141,17,26,36,228,,28,66,227,13*77
$GPGSV,4,4,13,30,67,128,17*44
$GPGLL,3342.91848,S,15109.65996,E,014834.00,A,A*7D
$GPRMC,014835.00,A,3342.91929,S,15109.66019,E,5.411,184.18,141214,,,A*76
$GPVTG,184.18,T,,M,5.411,N,10.020,K,A*0B
$GPGGA,014835.00,3342.91929,S,15109.66019,E,1,06,2.54,122.1,M,19.7,M,,*48
$GPGSA,A,3,09,28,07,19,11,30,,,,,,,4.65,2.54,3.89*0B
$GPGSV,4,1,13,01,14,076,19,04,11,106,15,05,08,281,,07,40,082,26*7F
$GPGSV,4,2,13,09,14,016,13,10,01,330,17,11,25,099,16,13,62,257,*74
$GPGSV,4,3,13,17,37,350,,19,12,141,16,26,36,228,,28,66,227,13*76
$GPGSV,4,4,13,30,67,128,17*44
$GPGLL,3342.91929,S,15109.66019,E,014835.00,A,A*77
$GPRMC,014836.00,A,3342.91835,S,15109.66059,E,3.564,,141214,,,A*62
$GPVTG,,T,,M,3.564,N,6.601,K,A*26
$GPGGA,014836.00,3342.91835,S,15109.66059,E,1,06,2.54,122.1,M,19.7,M,,*43
$GPGSA,A,3,09,28,07,19,11,30,,,,,,,4.64,2.54,3.89*0A
$GPGSV,4,1,13,01,14,076,19,04,11,106,16,05,08,281,,07,40,082,26*7C
$GPGSV,4,2,13,09,14,016,15,10,01,330,,11,25,099,16,13,62,257,*74
$GPGSV,4,3,13,17,37,350,07,19,12,141,16,26,36,228,,28,66,227,15*77
$GPGSV,4,4,13,30,67,128,17*44
$GPGLL,3342.91835,S,15109.66059,E,014836.00,A,A*7C
$GPRMC,014837.00,A,3342.91786,S,15109.66164,E,3.191,,141214,,,A*65
$GPVTG,,T,,M,3.191,N,5.910,K,A*24
$GPGGA,014837.00,3342.91786,S,15109.66164,E,1,06,1.49,123.1,M,19.7,M,,*44
$GPGSA,A,3,09,28,07,19,11,30,,,,,,,2.26,1.49,1.70*01
$GPGSV,4,1,13,01,14,076,19,04,11,106,16,05,08,281,,07,40,082,25*7F
$GPGSV,4,2,13,09,14,016,15,10,01,330,,11,25,099,16,13,62,257,*74
$GPGSV,4,3,13,17,37,350,07,19,12,141,16,26,36,228,,28,66,227,16*74
$GPGSV,4,4,13,30,67,128,16*45
$GPGLL,3342.91786,S,15109.66164,E,014837.00,A,A*75
$GPRMC,014838.00,A,3342.91630,S,15109.66257,E,1.771,,141214,,,A*6F
$GPVTG,,T,,M,1.771,N,3.280,K,A*2A
$GPGGA,014838.00,3342.91630,S,15109.66257,E,1,06,1.49,124.0,M,19.7,M,,*42
$GPGSA,A,3,09,28,07,19,11,30,,,,,,,2.26,1.49,1.70*01
$GPGSV,4,1,13,01,14,076,19,04,11,106,15,05,08,281,,07,40,082,25*7C
$GPGSV,4,2,13,09,14,016,15,10,01,330,,11,25,099,15,13,62,257,*77
$GPGSV,4,3,13,17,37,350,08,19,12,141,16,26,36,228,,28,66,227,16*7B
$GPGSV,4,4,13,30,67,128,15*46
$GPGLL,3342.91630,S,15109.66257,E,014838.00,A,A*75
$GPRMC,014839.00,A,3342.91545,S,15109.66397,E,1.700,,141214,,,A*64
$GPVTG,,T,,M,1.700,N,3.148,K,A*2B
$GPGGA,014839.00,3342.91545,S,15109.66397,E,1,05,3.87,124.9,M,19.7,M,,*45
$GPGSA,A,3,28,07,19,11,30,,,,,,,,5.73,3.87,4.22*0D
$GPGSV,4,1,13,01,14,076,19,04,11,107,15,05,08,281,,07,40,082,29*71
$GPGSV,4,2,13,09,14,016,,10,01,330,,11,25,099,15,13,62,257,*73
$GPGSV,4,3,13,17,37,350,06,19,12,141,16,26,36,228,22,28,66,227,16*75
$GPGSV,4,4,13,30,67,128,16*45
$GPGLL,3342.91545,S,15109.66397,E,014839.00,A,A*78
$GPRMC,014840.00,A,3342.91520,S,15109.66461,E,1.813,,141214,,,A*6A
$GPVTG,,T,,M,1.813,N,3.358,K,A*25
$GPGGA,014840.00,3342.91520,S,15109.66461,E,1,07,3.87,125.7,M,19.7,M,,*4B
$GPGSA,A,3,09,28,07,19,11,30,17,,,,,,5.73,3.87,4.22*02
$GPGSV,4,1,13,01,14,076,21,04,11,107,15,05,07,281,,07,40,082,27*7B
$GPGSV,4,2,13,09,14,016,16,10,01,330,,11,25,099,15,13,62,257,*74
$GPGSV,4,3,13,17,37,350,11,19,12,141,16,26,36,228,,28,66,227,16*73
$GPGSV,4,4,13,30,67,128,16*45
$GPGLL,3342.91520,S,15109.66461,E,014840.00,A,A*7B
$GPRMC,014841.00,A,3342.91445,S,15109.66435,E,1.514,,141214,,,A*62
$GPVTG,,T,,M,1.514,N,2.803,K,A*2B
$GPGGA,014841.00,3342.91445,S,15109.66435,E,1,07,1.50,126.4,M,19.7,M,,*41
$GPGSA,A,3,09,28,07,19,11,30,17,,,,,,2.52,1.50,2.02*0A
$GPGSV,4,1,13,01,14,076,20,04,11,107,16,05,07,281,,07,40,082,26*78
$GPGSV,4,2,13,09,14,016,15,10,01,330,,11,25,099,16,13,62,257,*74
$GPGSV,4,3,13,17,37,350,11,19,12,141,15,26,36,228,,28,66,227,17*71
$GPGSV,4,4,13,30,67,128,17*44
$GPGLL,3342.91445,S,15109.66435,E,014841.00,A,A*79
$GPRMC,014842.00,A,3342.91332,S,15109.66424,E,1.116,,141214,,,A*60
$GPVTG,,T,,M,1.116,N,2.067,K,A*27
$GPGGA,014842.00,3342.91332,S,15109.66424,E,1,07,1.50,127.0,M,19.7,M,,*40
$GPGSA,A,3,09,28,07,19,11,30,17,,,,,,2.52,1.50,2.02*0A
$GPGSV,4,1,13,01,14,076,19,04,11,107,15,05,07,281,,07,40,081,26*72
$GPGSV,4,2,13,09,14,016,13,10,01,330,,11,25,099,16,13,62,257,*72
$GPGSV,4,3,13,17,37,350,11,19,12,141,14,26,36,228,,28,66,227,16*71
$GPGSV,4,4,13,30,67,128,16*45
$GPGLL,3342.91332,S,15109.66424,E,014842.00,A,A*7D
$GPRMC,014843.00,A,3342.91192,S,15109.66460,E,1.169,,141214,,,A*61
$GPVTG,,T,,M,1.169,N,2.165,K,A*2C
$GPGGA,014843.00,3342.91192,S,15109.66460,E,1,07,1.50,127.6,M,19.7,M,,*4F
$GPGSA,A,3,09,28,07,19,11,30,17,,,,,,2.52,1.50,2.02*0A
$GPGSV,4,1,13,01,14,076,20,04,11,107,17,05,07,281,,07,40,081,26*7A
$GPGSV,4,2,13,09,14,016,14,10,01,330,,11,25,099,17,13,62,257,*74
$GPGSV,4,3,13,17,37,350,12,19,12,141,16,26,36,228,,28,66,227,16*70
$GPGSV,4,4,13,30,67,128,17*44
$GPGLL,3342.91192,S,15109.66460,E,014843.00,A,A*74
$GPRMC,014844.00,A,3342.91122,S,15109.66502,E,1.693,,141214,,,A*6A
$GPVTG,,T,,M,1.693,N,3.135,K,A*2A
$GPGGA,014844.00,3342.91122,S,15109.66502,E,1,07,1.38,128.0,M,19.7,M,,*41
$GPGSA,A,3,09,28,07,19,11,30,17,,,,,,2.19,1.38,1.70*0D
$GPGSV,4,1,13,01,14,076,21,04,11,107,16,05,07,281,,07,40,081,27*7B
$GPGSV,4,2,13,09,13,016,15,10,01,330,,11,25,099,18,13,62,257,*7D
$GPGSV,4,3,13,17,37,350,12,19,12,141,15,26,36,228,,28,66,227,17*72
$GPGSV,4,4,13,30,67,128,15*46
$GPGLL,3342.91122,S,15109.66502,E,014844.00,A,A*7D
$GPRMC,014845.00,A,3342.90957,S,15109.66536,E,1.286,,141214,,,A*67
$GPVTG,,T,,M,1.286,N,2.382,K,A*25
$GPGGA,014845.00,3342.90957,S,15109.66536,E,1,07,1.42,128.5,M,19.7,M,,*44
$GPGSA,A,3,09,28,07,19,11,30,17,,,,,,2.49,1.42,2.05*04
$GPGSV,4,1,13,01,14,076,21,04,11,107,16,05,07,281,,07,40,081,26*7A
$GPGSV,4,2,13,09,13,016,15,10,01,330,,11,25,099,17,13,62,257,*72
$GPGSV,4,3,13,17,37,350,12,19,12,141,13,26,36,228,,28,66,227,16*75
$GPGSV,4,4,13,30,67,128,12*41
$GPGLL,3342.90957,S,15109.66536,E,014845.00,A,A*70
$GPRMC,014846.00,A,3342.90930,S,15109.66477,E,1.091,,141214,,,A*65
$GPVTG,,T,,M,1.091,N,2.020,K,A*2A
$GPGGA,014846.00,3342.90930,S,15109.66477,E,1,07,1.38,129.2,M,19.7,M,,*49
$GPGSA,A,3,09,28,07,19,11,30,17,,,,,,2.19,1.38,1.70*0D
$GPGSV,4,1,13,01,14,076,21,04,11,107,,05,07,281,,07,40,081,26*7D
$GPGSV,4,2,13,09,13,016,14,10,01,330,,11,25,099,16,13,62,257,*72
$GPGSV,4,3,13,17,37,350,14,19,12,141,13,26,36,228,,28,66,227,17*72
$GPGSV,4,4,13,30,67,128,11*42
$GPGLL,3342.90930,S,15109.66477,E,014846.00,A,A*76
$GPRMC,014847.00,A,3342.90824,S,15109.66533,E,1.174,,141214,,,A*6B
$GPVTG,,T,,M,1.174,N,2.174,K,A*20
$GPGGA,014847.00,3342.90824,S,15109.66533,E,1,06,1.42,129.4,M,19.7,M,,*47
$GPGSA,A,3,09,28,07,19,11,17,,,,,,,2.49,1.42,2.05*07
$GPGSV,4,1,13,01,14,076,22,04,11,107,,05,07,281,21,07,40,081,26*7D
$GPGSV,4,2,13,09,13,016,14,10,01,330,,11,25,099,16,13,62,257,*72
$GPGSV,4,3,13,17,37,350,13,19,12,141,11,26,36,228,,28,66,227,17*77
$GPGSV,4,4,13,30,67,128,08*4A
$GPGLL,3342.90824,S,15109.66533,E,014847.00,A,A*72
$GPRMC,014848.00,A,3342.90622,S,15109.66619,E,1.571,,141214,,,A*66
$GPVTG,,T,,M,1.571,N,2.909,K,A*23
$GPGGA,014848.00,3342.90622,S,15109.66619,E,1,05,1.52,129.7,M,19.7,M,,*4A
$GPGSA,A,3,09,28,07,19,11,,,,,,,,2.55,1.52,2.05*0D
$GPGSV,4,1,13,01,14,076,21,04,11,107,,05,07,281,18,07,40,081,25*77
$GPGSV,4,2,13,09,13,016,12,10,01,330,,11,25,099,15,13,62,258,*78
$GPGSV,4,3,13,17,37,350,,19,12,141,12,26,36,228,,28,66,227,16*77
$GPGSV,4,4,13,30,67,128,*42
$GPGLL,3342.90622,S,15109.66619,E,014848.00,A,A*7E
$GPRMC,014849.00,A,3342.90504,S,15109.66650,E,1.859,,141214,,,A*6A
$GPVTG,,T,,M,1.859,N,3.443,K,A*26
$GPGGA,014849.00,3342.90504,S,15109.66650,E,1,04,2.08,128.5,M,19.7,M,,*4F
$GPGSA,A,2,28,07,19,11,,,,,,,,,2.30,2.08,1.00*0C
$GPGSV,4,1,13,01,14,076,21,04,11,107,,05,07,281,15,07,40,081,25*7A
$GPGSV,4,2,13,09,13,016,09,10,01,330,,11,25,099,14,13,62,258,*73
$GPGSV,4,3,13,17,37,350,,19,12,141,12,26,36,228,,28,66,227,15*74
$GPGSV,4,4,13,30,67,128,*42
$GPGLL,3342.90504,S,15109.66650,E,014849.00,A,A*75
$GPRMC,014850.00,A,3342.90300,S,15109.66663,E,2.467,,141214,,,A*62
$GPVTG,,T,,M,2.467,N,4.570,K,A*22
$GPGGA,014850.00,3342.90300,S,15109.66663,E,1,05,1.52,128.6,M,19.7,M,,*4B
$GPGSA,A,3,09,28,07,19,11,,,,,,,,2.55,1.52,2.05*0D
$GPGSV,4,1,14,01,14,076,21,04,11,107,,05,07,281,14,07,40,081,25*7C
$GPGSV,4,2,14,09,13,016,11,10,01,330,,11,25,099,16,13,62,258,*7F
$GPGSV,4,3,14,15,00,215,,17,37,350,,19,12,141,13,26,36,228,*79
$GPGSV,4,4,14,28,66,227,17,30,67,128,*7E
$GPGLL,3342.90300,S,15109.66663,E,014850.00,A,A*7F
$GPRMC,014851.00,A,3342.90053,S,15109.66664,E,3.532,,141214,,,A*61
$GPVTG,,T,,M,3.532,N,6.541,K,A*22
$GPGGA,014851.00,3342.90053,S,15109.66664,E,1,07,1.52,128.7,M,19.7,M,,*4B
$GPGSA,A,3,09,28,07,19,11,30,17,,,,,,2.55,1.52,2.05*08
$GPGSV,4,1,14,01,14,076,22,04,11,107,,05,07,281,13,07,40,081,27*7A
$GPGSV,4,2,14,09,13,016,11,10,01,330,,11,25,099,17,13,62,258,*7E
$GPGSV,4,3,14,15,00,215,,17,37,350,25,19,12,141,14,26,36,228,*79
$GPGSV,4,4,14,28,66,227,18,30,67,128,22*71
$GPGLL,3342.90053,S,15109.66664,E,014851.00,A,A*7C
$GPRMC,014852.00,A,3342.89905,S,15109.66528,E,3.557,255.11,141214,,,A*74
$GPVTG,255.11,T,,M,3.557,N,6.587,K,A*37
$GPGGA,014852.00,3342.89905,S,15109.66528,E,1,07,1.52,128.7,M,19.7,M,,*41
$GPGSA,A,3,09,28,07,19,11,30,17,,,,,,2.55,1.52,2.05*08
$GPGSV,4,1,14,01,14,076,23,04,11,107,,05,07,281,12,07,40,081,27*7A
$GPGSV,4,2,14,09,13,016,08,10,01,330,,11,25,099,19,13,62,258,*78
$GPGSV,4,3,14,15,00,215,,17,38,350,21,19,12,141,14,26,36,228,*72
$GPGSV,4,4,14,28,66,227,19,30,67,128,19*78
$GPGLL,3342.89905,S,15109.66528,E,014852.00,A,A*76
$GPRMC,014853.00,A,3342.89803,S,15109.66431,E,3.255,,141214,,,A*62
$GPVTG,,T,,M,3.255,N,6.028,K,A*2E
$GPGGA,014853.00,3342.89803,S,15109.66431,E,1,06,1.52,128.8,M,19.7,M,,*40
$GPGSA,A,3,09,28,07,19,11,17,,,,,,,2.55,1.52,2.05*0B
$GPGSV,4,1,14,01,14,076,23,04,11,107,,05,07,281,12,07,40,081,27*7A
$GPGSV,4,2,14,09,13,016,08,10,01,330,,11,25,099,18,13,62,258,*79
$GPGSV,4,3,14,15,00,215,,17,38,350,16,19,12,141,13,26,36,228,*71
$GPGSV,4,4,14,28,66,227,18,30,67,128,*71
$GPGLL,3342.89803,S,15109.66431,E,014853.00,A,A*79
$GPRMC,014854.00,A,3342.89724,S,15109.66357,E,2.942,,141214,,,A*64
$GPVTG,,T,,M,2.942,N,5.448,K,A*23
$GPGGA,014854.00,3342.89724,S,15109.66357,E,1,06,1.52,128.8,M,19.7,M,,*4A
$GPGSA,A,3,09,28,07,19,11,17,,,,,,,2.55,1.52,2.05*0B
$GPGSV,4,1,14,01,14,076,22,04,11,107,,05,07,281,13,07,40,081,26*7B
$GPGSV,4,2,14,09,13,016,08,10,01,330,,11,25,099,18,13,62,258,*79
$GPGSV,4,3,14,15,00,215,,17,38,350,15,19,12,141,12,26,36,228,*73
$GPGSV,4,4,14,28,66,227,17,30,67,128,*7E
$GPGLL,3342.89724,S,15109.66357,E,014854.00,A,A*73
$GPRMC,014855.00,A,3342.89667,S,15109.66325,E,2.503,,141214,,,A*6F
$GPVTG,,T,,M,2.503,N,4.635,K,A*23
$GPGGA,014855.00,3342.89667,S,15109.66325,E,1,06,1.52,128.8,M,19.7,M,,*48
$GPGSA,A,3,09,28,07,19,11,17,,,,,,,2.55,1.52,2.05*0B
$GPGSV,4,1,14,01,14,076,22,04,11,107,,05,07,281,13,07,40,081,26*7B
$GPGSV,4,2,14,09,13,016,08,10,01,330,,11,25,099,18,13,62,258,*79
$GPGSV,4,3,14,15,00,215,,17,38,350,13,19,12,141,12,26,36,228,*75
$GPGSV,4,4,14,28,66,227,17,30,67,128,*7E
$GPGLL,3342.89667,S,15109.66325,E,014855.00,A,A*71
$GPRMC,014856.00,A,3342.89622,S,15109.66362,E,1.971,,141214,,,A*64
$GPVTG,,T,,M,1.971,N,3.649,K,A*25
$GPGGA,014856.00,3342.89622,S,15109.66362,E,1,06,1.42,128.8,M,19.7,M,,*48
$GPGSA,A,3,09,28,07,19,11,17,,,,,,,2.49,1.42,2.05*07
$GPGSV,4,1,14,01,14,076,22,04,11,107,,05,07,281,13,07,40,081,26*7B
$GPGSV,4,2,14,09,13,016,08,10,01,330,,11,25,099,18,13,62,258,*79
$GPGSV,4,3,14,15,00,215,,17,38,350,13,19,12,141,12,26,36,228,*75
$GPGSV,4,4,14,28,66,227,15,30,67,128,*7C
$GPGLL,3342.89622,S,15109.66362,E,014856.00,A,A*70
$GPRMC,014857.00,A,3342.89635,S,15109.66430,E,1.291,,141214,,,A*66
$GPVTG,,T,,M,1.291,N,2.391,K,A*21
$GPGGA,014857.00,3342.89635,S,15109.66430,E,1,06,1.42,128.8,M,19.7,M,,*4F
$GPGSA,A,3,09,28,07,19,11,17,,,,,,,2.49,1.42,2.05*07
$GPGSV,4,1,14,01,14,076,22,04,11,107,,05,07,281,12,07,40,081,26*7A
$GPGSV,4,2,14,09,13,016,08,10,01,330,,11,25,099,18,13,62,258,*79
$GPGSV,4,3,14,15,00,215,,17,38,350,13,19,12,141,12,26,36,228,*75
$GPGSV,4,4,14,28,66,227,13,30,67,128,*7A
$GPGLL,3342.89635,S,15109.66430,E,014857.00,A,A*77
$GPRMC,014858.00,A,3342.89587,S,15109.66487,E,1.274,,141214,,,A*64
$GPVTG,,T,,M,1.274,N,2.360,K,A*24
$GPGGA,014858.00,3342.89587,S,15109.66487,E,1,06,1.42,128.8,M,19.7,M,,*46
$GPGSA,A,3,09,28,07,19,11,17,,,,,,,2.49,1.42,2.05*07
$GPGSV,4,1,14,01,14,076,22,04,11,107,,05,07,281,07,07,40,081,26*7E
$GPGSV,4,2,14,09,13,016,12,10,01,330,,11,25,099,19,13,62,258,*73
$GPGSV,4,3,14,15,00,215,,17,38,350,15,19,12,141,10,26,36,228,*71
$GPGSV,4,4,14,28,66,227,13,30,67,128,06*7C
$GPGLL,3342.89587,S,15109.66487,E,014858.00,A,A*7E
$GPRMC,014859.00,A,3342.89558,S,15109.66490,E,1.008,,141214,,,A*68
$GPVTG,,T,,M,1.008,N,1.867,K,A*22
$GPGGA,014859.00,3342.89558,S,15109.66490,E,1,05,1.52,128.8,M,19.7,M,,*41
$GPGSA,A,3,09,28,07,19,11,,,,,,,,2.55,1.52,2.05*0D
$GPGSV,4,1,14,01,14,076,21,04,11,107,,05,07,281,,07,40,081,27*7B
$GPGSV,4,2,14,09,13,016,12,10,01,330,,11,25,099,19,13,62,258,*73
$GPGSV,4,3,14,15,00,215,,17,38,350,,19,12,141,10,26,36,228,*75
$GPGSV,4,4,14,28,66,227,13,30,67,128,07*7D
$GPGLL,3342.89558,S,15109.66490,E,014859.00,A,A*7B
$GPRMC,014900.00,A,3342.89513,S,15109.66533,E,1.318,,141214,,,A*60
$GPVTG,,T,,M,1.318,N,2.442,K,A*28
$GPGGA,014900.00,3342.89513,S,15109.66533,E,1,04,2.08,128.7,M,19.7,M,,*49
$GPGSA,A,2,28,07,19,11,,,,,,,,,2.30,2.08,1.00*0C
$GPGSV,4,1,14,01,14,076,21,04,11,107,,05,07,281,,07,40,081,27*7B
$GPGSV,4,2,14,09,13,016,,10,01,330,17,11,25,099,19,13,62,258,*76
$GPGSV,4,3,14,15,00,215,21,17,38,350,15,19,12,141,09,26,36,228,*7A
$GPGSV,4,4,14,28,66,227,13,30,67,128,06*7C
$GPGLL,3342.89513,S,15109.66533,E,014900.00,A,A*71
$GPRMC,014901.00,A,3342.89449,S,15109.66543,E,1.600,,141214,,,A*64
$GPVTG,,T,,M,1.600,N,2.964,K,A*2D
$GPGGA,014901.00,3342.89449,S,15109.66543,E,1,04,2.08,128.8,M,19.7,M,,*4E
$GPGSA,A,2,28,07,19,11,,,,,,,,,2.30,2.08,1.00*0C
$GPGSV,4,1,14,01,14,076,21,04,11,107,,05,07,281,,07,40,081,27*7B
$GPGSV,4,2,14,09,13,016,,10,01,330,17,11,25,099,19,13,62,258,*76
$GPGSV,4,3,14,15,00,215,18,17,38,350,12,19,12,141,09,26,36,229,*76
$GPGSV,4,4,14,28,66,227,14,30,67,128,07*7A
$GPGLL,3342.89449,S,15109.66543,E,014901.00,A,A*79
$GPRMC,014902.00,A,3342.89399,S,15109.66404,E,1.232,,141214,,,A*6A
$GPVTG,,T,,M,1.232,N,2.282,K,A*2B
$GPGGA,014902.00,3342.89399,S,15109.66404,E,1,04,2.08,128.8,M,19.7,M,,*45
$GPGSA,A,2,28,07,19,11,,,,,,,,,2.30,2.08,1.00*0C
$GPGSV,4,1,14,01,14,076,22,04,11,107,,05,07,281,,07,40,081,27*78
$GPGSV,4,2,14,09,13,016,,10,01,330,15,11,25,099,19,13,62,258,*74
$GPGSV,4,3,14,15,00,215,16,17,38,350,11,19,12,141,09,26,36,229,*7B
$GPGSV,4,4,14,28,66,227,14,30,67,128,07*7A
$GPGLL,3342.89399,S,15109.66404,E,014902.00,A,A*72
$GPRMC,014903.00,A,3342.89387,S,15109.66108,E,1.879,,141214,,,A*68
$GPVTG,,T,,M,1.879,N,3.480,K,A*2B
$GPGGA,014903.00,3342.89387,S,15109.66108,E,1,05,2.08,128.8,M,19.7,M,,*43
$GPGSA,A,2,28,07,19,11,17,,,,,,,,2.30,2.08,1.00*0A
$GPGSV,4,1,14,01,14,076,21,04,11,107,,05,07,281,,07,40,081,26*7A
$GPGSV,4,2,14,09,13,016,,10,01,330,12,11,25,099,18,13,62,258,*72
$GPGSV,4,3,14,15,00,215,09,17,38,350,11,19,12,141,09,26,36,229,*75
$GPGSV,4,4,14,28,66,226,13,30,67,128,07*7C
$GPGLL,3342.89387,S,15109.66108,E,014903.00,A,A*75
$GPRMC,014904.00,A,3342.89324,S,15109.65545,E,4.410,268.27,141214,,,A*79
$GPVTG,268.27,T,,M,4.410,N,8.167,K,A*3D
$GPGGA,014904.00,3342.89324,S,15109.65545,E,1,07,3.90,128.8,M,19.7,M,,*41
$GPGSA,A,3,09,28,07,19,11,30,17,,,,,,5.75,3.90,4.24*04
$GPGSV,4,1,14,01,14,076,22,04,11,107,,05,07,281,25,07,40,081,27*7F
$GPGSV,4,2,14,09,13,016,19,10,01,330,10,11,25,099,19,13,62,258,*79
$GPGSV,4,3,14,15,00,215,08,17,38,350,07,19,12,141,08,26,36,229,*72
$GPGSV,4,4,14,28,66,226,12,30,67,128,07*7D
$GPGLL,3342.89324,S,15109.65545,E,014904.00,A,A*75
$GPRMC,014905.00,A,3342.89075,S,15109.65596,E,3.729,,141214,,,A*68
$GPVTG,,T,,M,3.729,N,6.906,K,A*25
$GPGGA,014905.00,3342.89075,S,15109.65596,E,1,04,15.43,128.7,M,19.7,M,,*7C
$GPGSA,A,3,07,19,11,30,,,,,,,,,19.80,15.43,12.40*3A
$GPGSV,4,1,14,01,14,076,21,04,11,107,,05,07,281,20,07,40,081,27*79
$GPGSV,4,2,14,09,13,016,16,10,01,330,19,11,25,099,19,13,62,258,*7F
$GPGSV,4,3,14,15,00,215,07,17,38,350,06,19,12,141,07,26,36,229,*73
$GPGSV,4,4,14,28,66,226,09,30,67,126,07*79
$GPGLL,3342.89075,S,15109.65596,E,014905.00,A,A*7D
$GPRMC,014906.00,A,3342.89000,S,15109.65526,E,3.529,,141214,,,A*60
$GPVTG,,T,,M,3.529,N,6.535,K,A*2B
$GPGGA,014906.00,3342.89000,S,15109.65526,E,1,04,7.58,128.7,M,19.7,M,,*4F
$GPGSA,A,2,07,19,11,30,,,,,,,,,7.64,7.58,1.00*01
$GPGSV,4,1,14,01,14,076,21,04,11,107,,05,07,281,16,07,40,081,27*7C
$GPGSV,4,2,14,09,13,016,12,10,01,330,16,11,25,099,19,13,62,258,*74
$GPGSV,4,3,14,15,00,215,,17,38,350,06,19,12,141,07,26,36,229,*74
$GPGSV,4,4,14,28,66,226,09,30,67,126,07*79
$GPGLL,3342.89000,S,15109.65526,E,014906.00,A,A*77
$GPRMC,014907.00,V,,,,,,,141214,,,N*75
$GPVTG,,,,,,,,,N*30
$GPGGA,014907.00,,,,,0,00,99.99,,,,,,*6D
$GPGSA,A,1,,,,,,,,,,,,,99.99,99.99,99.99*30
$GPGSV,4,1,14,01,14,076,20,04,11,107,21,05,07,281,15,07,40,081,28*72
$GPGSV,4,2,14,09,13,016,13,10,01,330,15,11,25,099,19,13,62,258,*76
$GPGSV,4,3,14,15,00,215,,17,38,350,06,19,12,141,,26,36,229,*73
$GPGSV,4,4,14,28,66,226,09,30,67,126,07*79
$GPGLL,,,,,014907.00,V,N*41
$GPRMC,014908.00,A,3342.89893,S,15109.65168,E,4.619,246.67,141214,,,A*7A
$GPVTG,246.67,T,,M,4.619,N,8.555,K,A*3B
$GPGGA,014908.00,3342.89893,S,15109.65168,E,1,06,2.35,128.8,M,19.7,M,,*4E
$GPGSA,A,3,09,28,07,11,30,17,,,,,,,4.76,2.35,4.14*03
$GPGSV,4,1,14,01,14,076,20,04,11,107,21,05,07,281,12,07,40,081,28*75
$GPGSV,4,2,14,09,13,016,13,10,01,330,14,11,25,099,20,13,62,258,*7D
$GPGSV,4,3,14,15,00,215,,17,38,350,07,19,12,141,,26,36,229,*72
$GPGSV,4,4,14,28,66,226,11,30,67,126,07*70
$GPGLL,3342.89893,S,15109.65168,E,014908.00,A,A*75
$GPRMC,014909.00,V,,,,,,,141214,,,N*7B
$GPVTG,,,,,,,,,N*30
$GPGGA,014909.00,,,,,0,00,99.99,,,,,,*63
$GPGSA,A,1,,,,,,,,,,,,,99.99,99.99,99.99*30
$GPGSV,4,1,14,01,14,076,20,04,11,107,21,05,07,281,10,07,40,081,28*77
$GPGSV,4,2,14,09,13,016,14,10,01,330,14,11,25,099,18,13,62,258,*71
$GPGSV,4,3,14,15,00,215,,17,38,350,,19,12,141,,26,36,229,*75
$GPGSV,4,4,14,28,66,226,,30,67,126,08*7F
$GPGLL,,,,,014909.00,V,N*4F
$GPRMC,014910.00,V,,,,,,,141214,,,N*73
$GPVTG,,,,,,,,,N*30
$GPGGA,014910.00,,,,,0,00,99.99,,,,,,*6B
$GPGSA,A,1,,,,,,,,,,,,,99.99,99.99,99.99*30
$GPGSV,4,1,14,01,14,076,22,04,11,107,22,05,07,281,08,07,40,081,28*7F
$GPGSV,4,2,14,09,13,016,14,10,01,330,,11,25,099,19,13,62,258,*75
$GPGSV,4,3,14,15,00,215,,17,38,350,,19,12,141,21,26,36,229,*76
$GPGSV,4,4,14,28,66,226,,30,67,126,09*7E
$GPGLL,,,,,014910.00,V,N*47
$GPRMC,014911.00,V,,,,,,,141214,,,N*72
$GPVTG,,,,,,,,,N*30
$GPGGA,014911.00,,,,,0,00,99.99,,,,,,*6A
$GPGSA,A,1,,,,,,,,,,,,,99.99,99.99,99.99*30
$GPGSV,4,1,14,01,14,076,20,04,11,107,22,05,07,281,08,07,40,081,27*72
$GPGSV,4,2,14,09,13,016,15,10,01,330,18,11,25,099,18,13,62,258,*7C
$GPGSV,4,3,14,15,00,215,,17,38,350,,19,12,141,18,26,36,229,*7C
$GPGSV,4,4,14,28,66,226,07,30,67,126,09*79
$GPGLL,,,,,014911.00,V,N*46
$GPRMC,014912.00,V,,,,,,,141214,,,N*71
$GPVTG,,,,,,,,,N*30
$GPGGA,014912.00,,,,,0,00,99.99,,,,,,*69
$GPGSA,A,1,,,,,,,,,,,,,99.99,99.99,99.99*30
$GPGSV,4,1,14,01,14,076,21,04,11,107,22,05,07,281,08,07,40,081,27*73
$GPGSV,4,2,14,09,13,016,14,10,01,330,16,11,25,099,18,13,62,258,*73
$GPGSV,4,3,14,15,00,215,,17,38,350,,19,12,141,15,26,36,229,*71
$GPGSV,4,4,14,28,66,226,09,30,67,126,09*77
$GPGLL,,,,,014912.00,V,N*45
$GPRMC,014913.00,V,,,,,,,141214,,,N*70
$GPVTG,,,,,,,,,N*30
$GPGGA,014913.00,,,,,0,00,99.99,,,,,,*68
$GPGSA,A,1,,,,,,,,,,,,,99.99,99.99,99.99*30
$GPGSV,4,1,14,01,14,076,20,04,11,107,22,05,07,281,07,07,40,081,27*7D
$GPGSV,4,2,14,09,13,016,14,10,01,330,,11,25,099,17,13,62,258,*7B
$GPGSV,4,3,14,15,00,215,,17,38,350,06,19,12,141,14,26,36,229,*76
$GPGSV,4,4,14,28,66,226,11,30,67,126,08*7F
$GPGLL,,,,,014913.00,V,N*44
$GPRMC,014914.00,A,3342.89093,S,15109.65828,E,2.758,,141214,,,A*6F
$GPVTG,,T,,M,2.758,N,5.107,K,A*28
$GPGGA,014914.00,3342.89093,S,15109.65828,E,1,05,2.26,128.8,M,19.7,M,,*47
$GPGSA,A,3,09,07,19,11,30,,,,,,,,2.83,2.26,1.71*0F
$GPGSV,4,1,14,01,14,076,22,04,11,107,22,05,07,281,07,07,40,081,27*7F
$GPGSV,4,2,14,09,13,016,15,10,01,330,,11,25,099,18,13,62,258,*75
$GPGSV,4,3,14,15,00,215,17,17,38,350,08,19,12,141,13,26,36,229,*79
$GPGSV,4,4,14,28,66,226,12,30,67,126,08*7C
$GPGLL,3342.89093,S,15109.65828,E,014914.00,A,A*7D
$GPRMC,014915.00,A,3342.89047,S,15109.66104,E,3.244,,141214,,,A*6A
$GPVTG,,T,,M,3.244,N,6.009,K,A*2D
$GPGGA,014915.00,3342.89047,S,15109.66104,E,1,04,5.33,128.9,M,19.7,M,,*48
$GPGSA,A,3,09,07,19,11,,,,,,,,,7.49,5.33,5.26*0A
$GPGSV,4,1,14,01,14,076,21,04,11,107,21,05,07,281,07,07,40,081,27*7F
$GPGSV,4,2,14,09,13,016,14,10,01,330,,11,25,099,17,13,62,258,*7B
$GPGSV,4,3,14,15,00,215,12,17,38,350,08,19,12,141,10,26,36,229,*7F
$GPGSV,4,4,14,28,66,226,09,30,67,126,*7E
$GPGLL,3342.89047,S,15109.66104,E,014915.00,A,A*71
$GPRMC,014916.00,A,3342.89000,S,15109.66183,E,3.445,,141214,,,A*62
$GPVTG,,T,,M,3.445,N,6.380,K,A*28
$GPGGA,014916.00,3342.89000,S,15109.66183,E,1,05,1.51,129.0,M,19.7,M,,*4E
$GPGSA,A,3,09,28,07,19,11,,,,,,,,2.54,1.51,2.04*0E
$GPGSV,4,1,14,01,14,076,21,04,11,107,21,05,07,281,,07,40,081,28*77
$GPGSV,4,2,14,09,13,016,15,10,01,330,,11,25,099,19,13,62,258,*74
$GPGSV,4,3,14,15,00,215,09,17,38,350,10,19,12,141,11,26,36,229,*7D
$GPGSV,4,4,14,28,66,226,11,30,67,126,*77
$GPGLL,3342.89000,S,15109.66183,E,014916.00,A,A*7E
$GPRMC,014917.00,A,3342.89134,S,15109.66173,E,2.843,,141214,,,A*61
$GPVTG,,T,,M,2.843,N,5.265,K,A*2A
$GPGGA,014917.00,3342.89134,S,15109.66173,E,1,05,1.51,129.2,M,19.7,M,,*44
$GPGSA,A,3,09,28,07,19,11,,,,,,,,2.54,1.51,2.04*0E
$GPGSV,4,1,14,01,14,076,22,04,11,107,22,05,07,281,,07,40,081,28*77
$GPGSV,4,2,14,09,13,016,15,10,01,330,,11,25,099,19,13,62,258,*74
$GPGSV,4,3,14,15,00,215,08,17,38,350,09,19,12,141,11,26,36,229,*74
$GPGSV,4,4,14,28,66,226,13,30,67,126,*75
$GPGLL,3342.89134,S,15109.66173,E,014917.00,A,A*76
$GPRMC,014918.00,A,3342.89088,S,15109.66607,E,4.231,359.39,141214,,,A*7E
$GPVTG,359.39,T,,M,4.231,N,7.836,K,A*36
$GPGGA,014918.00,3342.89088,S,15109.66607,E,1,06,1.51,129.3,M,19.7,M,,*4B
$GPGSA,A,3,09,28,07,19,11,17,,,,,,,2.54,1.51,2.04*08
$GPGSV,4,1,14,01,14,076,21,04,11,107,22,05,07,281,,07,40,081,28*74
$GPGSV,4,2,14,09,13,016,15,10,01,330,,11,25,099,17,13,62,258,*7A
$GPGSV,4,3,14,15,00,215,08,17,38,350,10,19,12,141,10,26,36,229,*7D
$GPGSV,4,4,14,28,66,226,12,30,67,126,*74
$GPGLL,3342.89088,S,15109.66607,E,014918.00,A,A*7B
$GPRMC,014919.00,A,3342.89247,S,15109.66373,E,3.030,,141214,,,A*67
$GPVTG,,T,,M,3.030,N,5.612,K,A*23
$GPGGA,014919.00,3342.89247,S,15109.66373,E,1,04,2.76,129.4,M,19.7,M,,*4E
$GPGSA,A,3,09,28,07,11,,,,,,,,,5.55,2.76,4.81*0D
$GPGSV,4,1,14,01,14,076,21,04,11,107,22,05,07,281,,07,40,081,28*74
$GPGSV,4,2,14,09,13,016,15,10,01,330,,11,25,099,18,13,62,258,*75
$GPGSV,4,3,14,15,00,215,08,17,38,350,,19,12,141,09,26,36,229,*74
$GPGSV,4,4,14,28,66,226,14,30,67,126,*72
$GPGLL,3342.89247,S,15109.66373,E,014919.00,A,A*7D
$GPRMC,014920.00,A,3342.89211,S,15109.66408,E,2.679,,141214,,,A*6F
$GPVTG,,T,,M,2.679,N,4.962,K,A*20
$GPGGA,014920.00,3342.89211,S,15109.66408,E,1,06,1.51,129.5,M,19.7,M,,*49
$GPGSA,A,3,09,28,07,19,11,17,,,,,,,2.54,1.51,2.04*08
$GPGSV,4,1,14,01,14,076,20,04,11,107,22,05,07,281,,07,40,081,28*75
$GPGSV,4,2,14,09,13,016,15,10,01,330,,11,25,099,19,13,62,258,*74
$GPGSV,4,3,14,15,00,215,08,17,38,350,16,19,12,141,11,26,36,229,18*73
$GPGSV,4,4,14,28,66,226,14,30,67,126,*72
$GPGLL,3342.89211,S,15109.66408,E,014920.00,A,A*7F
$GPRMC,014921.00,A,3342.89323,S,15109.66302,E,1.387,,141214,,,A*64
$GPVTG,,T,,M,1.387,N,2.569,K,A*26
$GPGGA,014921.00,3342.89323,S,15109.66302,E,1,05,1.51,129.6,M,19.7,M,,*45
$GPGSA,A,3,09,28,07,19,11,,,,,,,,2.54,1.51,2.04*0E
$GPGSV,4,1,14,01,14,076,21,04,11,107,22,05,07,281,,07,40,081,27*7B
$GPGSV,4,2,14,09,13,016,15,10,01,330,,11,25,099,19,13,62,258,*74
$GPGSV,4,3,14,15,00,215,08,17,38,350,15,19,12,141,10,26,36,229,16*7F
$GPGSV,4,4,14,28,66,226,14,30,67,126,*72
$GPGLL,3342.89323,S,15109.66302,E,014921.00,A,A*73
$GPRMC,014922.00,A,3342.89341,S,15109.66144,E,1.164,,141214,,,A*6C
$GPVTG,,T,,M,1.164,N,2.155,K,A*22
$GPGGA,014922.00,3342.89341,S,15109.66144,E,1,04,2.76,129.7,M,19.7,M,,*44
$GPGSA,A,3,09,28,07,11,,,,,,,,,5.54,2.76,4.81*0C
$GPGSV,4,1,14,01,14,076,20,04,11,107,22,05,07,281,,07,40,081,26*7B
$GPGSV,4,2,14,09,13,016,14,10,01,330,17,11,25,099,17,13,62,258,*7D
$GPGSV,4,3,14,15,00,215,06,17,38,350,12,19,12,141,08,26,36,229,11*78
$GPGSV,4,4,14,28,66,226,14,30,67,126,*72
$GPGLL,3342.89341,S,15109.66144,E,014922.00,A,A*74
$GPRMC,014923.00,A,3342.89409,S,15109.66122,E,1.281,,141214,,,A*6E
$GPVTG,,T,,M,1.281,N,2.372,K,A*2D
$GPGGA,014923.00,3342.89409,S,15109.66122,E,1,05,2.76,129.7,M,19.7,M,,*4F
$GPGSA,A,3,09,28,07,11,17,,,,,,,,5.54,2.76,4.81*0A
$GPGSV,4,1,14,01,14,076,21,04,11,107,22,05,07,281,,07,40,081,27*7B
$GPGSV,4,2,14,09,13,016,15,10,01,330,18,11,25,099,18,13,62,258,*7C
$GPGSV,4,3,14,15,00,215,06,17,38,350,14,19,12,141,09,26,36,229,12*7C
$GPGSV,4,4,14,28,66,226,18,30,67,126,*7E
$GPGLL,3342.89409,S,15109.66122,E,014923.00,A,A*7E
$GPRMC,014924.00,A,3342.89447,S,15109.66017,E,0.971,,141214,,,A*61
$GPVTG,,T,,M,0.971,N,1.798,K,A*2B
$GPGGA,014924.00,3342.89447,S,15109.66017,E,1,05,2.76,129.8,M,19.7,M,,*4A
$GPGSA,A,3,09,28,07,11,17,,,,,,,,5.54,2.76,4.81*0A
$GPGSV,4,1,14,01,14,076,20,04,11,107,21,05,07,281,,07,40,081,26*78
$GPGSV,4,2,14,09,13,016,14,10,01,330,16,11,25,099,16,13,62,258,*7D
$GPGSV,4,3,14,15,00,215,06,17,38,350,14,19,12,141,09,26,36,229,10*7E
$GPGSV,4,4,14,28,66,226,17,30,67,126,*71
$GPGLL,3342.89447,S,15109.66017,E,014924.00,A,A*74
$GPRMC,014925.00,A,3342.89617,S,15109.66210,E,1.049,,141214,,,A*61
$GPVTG,,T,,M,1.049,N,1.943,K,A*20
$GPGGA,014925.00,3342.89617,S,15109.66210,E,1,05,2.34,129.8,M,19.7,M,,*4F
$GPGSA,A,3,09,28,07,11,17,,,,,,,,4.73,2.34,4.12*02
$GPGSV,4,1,14,01,14,076,20,04,11,107,21,05,07,281,,07,40,081,26*78
$GPGSV,4,2,14,09,13,016,14,10,01,330,,11,25,099,16,13,62,258,*7A
$GPGSV,4,3,14,15,00,215,06,17,38,350,14,19,12,141,09,26,36,229,08*77
$GPGSV,4,4,14,28,66,226,18,30,67,126,*7E
$GPGLL,3342.89617,S,15109.66210,E,014925.00,A,A*77
$GPRMC,014926.00,A,3342.89799,S,15109.66296,E,0.745,,141214,,,A*61
$GPVTG,,T,,M,0.745,N,1.380,K,A*2F
$GPGGA,014926.00,3342.89799,S,15109.66296,E,1,05,2.34,129.9,M,19.7,M,,*44
$GPGSA,A,3,09,28,07,11,17,,,,,,,,4.73,2.34,4.12*02
$GPGSV,4,1,14,01,14,076,21,04,11,107,21,05,07,281,,07,40,081,26*79
$GPGSV,4,2,14,09,13,016,13,10,01,330,,11,25,099,14,13,62,258,*7F
$GPGSV,4,3,14,15,00,215,06,17,38,350,12,19,12,141,08,26,36,229,07*7F
$GPGSV,4,4,14,28,66,226,18,30,67,126,*7E
$GPGLL,3342.89799,S,15109.66296,E,014926.00,A,A*7D
$GPRMC,014927.00,A,3342.89929,S,15109.66369,E,0.646,,141214,,,A*66
$GPVTG,,T,,M,0.646,N,1.197,K,A*29
$GPGGA,014927.00,3342.89929,S,15109.66369,E,1,05,2.34,129.9,M,19.7,M,,*41
$GPGSA,A,3,09,28,07,11,17,,,,,,,,4.73,2.34,4.11*01
$GPGSV,4,1,14,01,14,076,21,04,11,107,22,05,07,281,,07,40,081,27*7B
$GPGSV,4,2,14,09,13,016,12,10,01,330,,11,25,099,14,13,62,258,*7E
$GPGSV,4,3,14,15,00,215,06,17,38,350,11,19,12,141,08,26,36,229,*7B
$GPGSV,4,4,14,28,66,226,17,30,67,126,*71
$GPGLL,3342.89929,S,15109.66369,E,014927.00,A,A*78
$GPRMC,014928.00,A,3342.90195,S,15109.66434,E,0.927,,141214,,,A*69
$GPVTG,,T,,M,0.927,N,1.717,K,A*2F
$GPGGA,014928.00,3342.90195,S,15109.66434,E,1,06,1.42,130.0,M,19.7,M,,*46
$GPGSA,A,3,09,28,07,19,11,17,,,,,,,2.48,1.42,2.04*07
$GPGSV,4,1,14,01,14,076,21,04,11,107,22,05,07,281,,07,40,081,27*7B
$GPGSV,4,2,14,09,13,016,13,10,01,330,,11,25,099,14,13,62,258,*7F
$GPGSV,4,3,14,15,00,215,09,17,38,350,13,19,12,141,08,26,36,229,*76
$GPGSV,4,4,14,28,66,226,17,30,67,126,*71
$GPGLL,3342.90195,S,15109.66434,E,014928.00,A,A*7F
$GPRMC,014929.00,A,3342.90358,S,15109.66500,E,1.542,,141214,,,A*63
$GPVTG,,T,,M,1.542,N,2.856,K,A*28
$GPGGA,014929.00,3342.90358,S,15109.66500,E,1,06,1.42,130.0,M,19.7,M,,*42
$GPGSA,A,3,09,28,07,19,11,17,,,,,,,2.48,1.42,2.03*00
$GPGSV,4,1,14,01,14,076,21,04,11,107,23,05,07,281,,07,40,081,27*7A
$GPGSV,4,2,14,09,13,016,14,10,01,330,,11,25,099,14,13,62,258,*78
$GPGSV,4,3,14,15,00,215,10,17,38,350,12,19,12,141,08,26,36,229,*7F
$GPGSV,4,4,14,28,66,226,16,30,67,126,*70
$GPGLL,3342.90358,S,15109.66500,E,014929.00,A,A*7B
$GPRMC,014930.00,A,3342.90454,S,15109.66624,E,1.088,,141214,,,A*66
$GPVTG,,T,,M,1.088,N,2.016,K,A*27
$GPGGA,014930.00,3342.90454,S,15109.66624,E,1,05,2.34,130.0,M,19.7,M,,*45
$GPGSA,A,3,09,28,07,11,17,,,,,,,,4.73,2.34,4.11*01
$GPGSV,4,1,14,01,14,076,22,04,11,107,23,05,07,281,,07,40,081,27*79
$GPGSV,4,2,14,09,13,016,14,10,01,330,,11,25,099,14,13,62,258,*78
$GPGSV,4,3,14,15,00,215,10,17,38,350,11,19,12,141,,26,36,229,*74
$GPGSV,4,4,14,28,66,226,15,30,67,126,*73
$GPGLL,3342.90454,S,15109.66624,E,014930.00,A,A*7D
$GPRMC,014931.00,A,3342.90659,S,15109.66713,E,1.749,,141214,,,A*67
$GPVTG,,T,,M,1.749,N,3.239,K,A*23
$GPGGA,014931.00,3342.90659,S,15109.66713,E,1,05,2.34,130.0,M,19.7,M,,*4E
$GPGSA,A,3,09,28,07,11,17,,,,,,,,4.73,2.34,4.11*01
$GPGSV,4,1,14,01,14,076,21,04,11,107,23,05,07,281,,07,40,081,27*7A
$GPGSV,4,2,14,09,13,016,15,10,01,330,,11,25,099,12,13,62,258,*7F
$GPGSV,4,3,14,15,00,215,10,17,38,350,11,19,12,141,,26,36,229,*74
$GPGSV,4,4,14,28,66,226,15,30,67,126,*73
$GPGLL,3342.90659,S,15109.66713,E,014931.00,A,A*76
$GPRMC,014932.00,A,3342.90775,S,15109.66825,E,1.754,,141214,,,A*6D
$GPVTG,,T,,M,1.754,N,3.249,K,A*28
$GPGGA,014932.00,3342.90775,S,15109.66825,E,1,04,2.91,130.0,M,19.7,M,,*46
$GPGSA,A,3,09,28,07,17,,,,,,,,,6.10,2.91,5.36*0D
$GPGSV,4,1,14,01,14,076,22,04,11,107,23,05,07,281,,07,40,081,27*79
$GPGSV,4,2,14,09,13,016,15,10,01,330,,11,25,099,,13,62,258,*7C
$GPGSV,4,3,14,15,00,215,10,17,38,350,11,19,12,141,,26,36,229,*74
$GPGSV,4,4,14,28,66,226,15,30,67,126,*73
$GPGLL,3342.90775,S,15109.66825,E,014932.00,A,A*70
$GPRMC,014933.00,V,,,,,,,141214,,,N*72
$GPVTG,,,,,,,,,N*30
$GPGGA,014933.00,,,,,0,00,99.99,,,,,,*6A
$GPGSA,A,1,,,,,,,,,,,,,99.99,99.99,99.99*30
$GPGSV,4,1,14,01,14,076,22,04,11,107,23,05,07,281,,07,40,081,27*79
$GPGSV,4,2,14,09,13,016,18,10,01,330,,11,25,099,16,13,62,258,*76
$GPGSV,4,3,14,15,00,215,,17,38,350,11,19,12,141,21,26,36,229,*76
$GPGSV,4,4,14,28,66,226,16,30,67,126,*70
$GPGLL,,,,,014933.00,V,N*46
$GPRMC,014934.00,V,,,,,,,141214,,,N*75
$GPVTG,,,,,,,,,N*30
$GPGGA,014934.00,,,,,0,00,99.99,,,,,,*6D
$GPGSA,A,1,,,,,,,,,,,,,99.99,99.99,99.99*30
$GPGSV,4,1,14,01,14,076,21,04,11,107,23,05,07,281,,07,40,081,27*7A
$GPGSV,4,2,14,09,13,016,18,10,01,330,,11,25,099,14,13,62,258,*74
$GPGSV,4,3,14,15,00,215,,17,38,350,12,19,12,141,18,26,36,229,*7F
$GPGSV,4,4,14,28,66,226,16,30,67,126,*70
$GPGLL,,,,,014934.00,V,N*41
$GPRMC,014935.00,V,,,,,,,141214,,,N*74
$GPVTG,,,,,,,,,N*30
$GPGGA,014935.00,,,,,0,00,99.99,,,,,,*6C
$GPGSA,A,1,,,,,,,,,,,,,99.99,99.99,99.99*30
$GPGSV,4,1,14,01,14,076,20,04,11,107,21,05,07,281,,07,40,081,26*78
$GPGSV,4,2,14,09,13,016,16,10,01,330,,11,25,099,09,13,62,258,*76
$GPGSV,4,3,14,15,00,215,,17,38,350,,19,12,141,11,26,36,229,*75
$GPGSV,4,4,14,28,66,226,15,30,67,126,*73
$GPGLL,,,,,014935.00,V,N*40
$GPRMC,014936.00,V,,,,,,,141214,,,N*77
$GPVTG,,,,,,,,,N*30
$GPGGA,014936.00,,,,,0,00,99.99,,,,,,*6F
$GPGSA,A,1,,,,,,,,,,,,,99.99,99.99,99.99*30
$GPGSV,4,1,14,01,14,076,21,04,11,107,22,05,07,281,,07,40,081,26*7A
$GPGSV,4,2,14,09,13,016,15,10,01,330,,11,25,099,09,13,62,258,*75
$GPGSV,4,3,14,15,00,215,,17,38,350,,19,12,141,09,26,36,229,*7C
$GPGSV,4,4,14,28,66,226,15,30,67,126,*73
$GPGLL,,,,,014936.00,V,N*43
$GPRMC,014937.00,V,,,,,,,141214,,,N*76
$GPVTG,,,,,,,,,N*30
$GPGGA,014937.00,,,,,0,00,99.99,,,,,,*6E
$GPGSA,A,1,,,,,,,,,,,,,99.99,99.99,99.99*30
$GPGSV,4,1,14,01,14,076,21,04,11,107,22,05,07,281,,07,40,081,27*7B
$GPGSV,4,2,14,09,13,016,14,10,01,330,,11,25,099,08,13,62,258,*75
$GPGSV,4,3,14,15,00,215,,17,38,350,05,19,12,141,10,26,36,229,*71
$GPGSV,4,4,14,28,66,226,15,30,67,126,*73
$GPGLL,,,,,014937.00,V,N*42
$GPRMC,014938.00,V,,,,,,,141214,,,N*79
$GPVTG,,,,,,,,,N*30
$GPGGA,014938.00,,,,,0,00,99.99,,,,,,*61
$GPGSA,A,1,,,,,,,,,,,,,99.99,99.99,99.99*30
$GPGSV,4,1,14,01,14,076,22,04,11,107,23,05,07,281,,07,40,081,27*79
$GPGSV,4,2,14,09,13,016,16,10,01,330,,11,25,099,08,13,62,258,*77
$GPGSV,4,3,14,15,00,215,,17,38,350,08,19,12,141,13,26,36,229,*7F
$GPGSV,4,4,14,28,66,226,,30,67,126,*77
$GPGLL,,,,,014938.00,V,N*4D
$GPRMC,014939.00,V,,,,,,,141214,,,N*78
$GPVTG,,,,,,,,,N*30
$GPGGA,014939.00,,,,,0,00,99.99,,,,,,*60
$GPGSA,A,1,,,,,,,,,,,,,99.99,99.99,99.99*30
$GPGSV,4,1,14,01,14,076,22,04,11,107,23,05,07,281,,07,40,081,27*79
$GPGSV,4,2,14,09,13,016,16,10,01,330,,11,25,099,,13,62,258,*7F
$GPGSV,4,3,14,15,00,215,,17,38,350,11,19,12,141,12,26,36,229,*76
$GPGSV,4,4,14,28,66,226,16,30,67,126,06*76
$GPGLL,,,,,014939.00,V,N*4C
$GPRMC,014940.00,V,,,,,,,141214,,,N*76
$GPVTG,,,,,,,,,N*30
$GPGGA,014940.00,,,,,0,00,99.99,,,,,,*6E
$GPGSA,A,1,,,,,,,,,,,,,99.99,99.99,99.99*30
$GPGSV,4,1,14,01,14,076,21,04,11,107,24,05,07,281,,07,40,081,28*72
$GPGSV,4,2,14,09,13,016,17,10,01,330,,11,25,099,,13,62,258,*7E
$GPGSV,4,3,14,15,00,215,,17,38,350,12,19,12,141,13,26,36,229,*74
$GPGSV,4,4,14,28,66,226,16,30,67,126,08*78
$GPGLL,,,,,014940.00,V,N*42
$GPRMC,014941.00,V,,,,,,,141214,,,N*77
$GPVTG,,,,,,,,,N*30
$GPGGA,014941.00,,,,,0,00,99.99,,,,,,*6F
$GPGSA,A,1,,,,,,,,,,,,,99.99,99.99,99.99*30
$GPGSV,4,1,14,01,14,076,21,04,11,107,24,05,07,281,,07,40,081,27*7D
$GPGSV,4,2,14,09,13,016,15,10,01,330,,11,25,099,,13,62,258,*7C
$GPGSV,4,3,14,15,00,215,,17,38,350,11,19,12,141,13,26,36,229,*77
$GPGSV,4,4,14,28,66,226,13,30,67,126,11*75
$GPGLL,,,,,014941.00,V,N*43
$GPRMC,014942.00,V,,,,,,,141214,,,N*74
$GPVTG,,,,,,,,,N*30
$GPGGA,014942.00,,,,,0,00,99.99,,,,,,*6C
$GPGSA,A,1,,,,,,,,,,,,,99.99,99.99,99.99*30
$GPGSV,4,1,14,01,14,076,22,04,11,107,25,05,07,281,,07,40,081,28*70
$GPGSV,4,2,14,09,13,016,13,10,01,330,,11,25,099,,13,62,258,*7A
$GPGSV,4,3,14,15,00,215,,17,38,350,19,19,12,141,14,26,36,229,*78
$GPGSV,4,4,14,28,66,226,14,30,67,126,10*73
$GPGLL,,,,,014942.00,V,N*40
$GPRMC,014943.00,A,3342.90899,S,15109.66900,E,0.249,,141214,,,A*68
$GPVTG,,T,,M,0.249,N,0.461,K,A*2F
$GPGGA,014943.00,3342.90899,S,15109.66900,E,1,06,1.72,130.0,M,19.7,M,,*47
$GPGSA,A,3,09,28,07,19,11,17,,,,,,,2.70,1.72,2.08*03
$GPGSV,4,1,14,01,14,076,22,04,11,107,24,05,07,281,,07,40,081,27*7E
$GPGSV,4,2,14,09,13,016,13,10,01,330,,11,25,099,15,13,62,258,*7E
$GPGSV,4,3,14,15,00,215,,17,38,350,16,19,12,141,13,26,36,229,*70
$GPGSV,4,4,14,28,66,226,14,30,67,126,09*7B
$GPGLL,3342.90899,S,15109.66900,E,014943.00,A,A*7D
$GPRMC,014944.00,A,3342.91073,S,15109.67000,E,1.402,,141214,,,A*62
$GPVTG,,T,,M,1.402,N,2.596,K,A*2C
$GPGGA,014944.00,3342.91073,S,15109.67000,E,1,06,1.72,130.2,M,19.7,M,,*47
$GPGSA,A,3,09,28,07,19,11,17,,,,,,,2.70,1.72,2.08*03
$GPGSV,4,1,14,01,14,076,23,04,11,107,24,05,07,281,,07,40,081,27*7F
$GPGSV,4,2,14,09,13,016,13,10,01,330,,11,25,099,13,13,62,258,*78
$GPGSV,4,3,14,15,00,215,,17,38,350,11,19,12,141,12,26,36,229,*76
$GPGSV,4,4,14,28,66,226,14,30,67,126,08*7A
$GPGLL,3342.91073,S,15109.67000,E,014944.00,A,A*7F
$GPRMC,014945.00,A,3342.91076,S,15109.67060,E,1.611,,141214,,,A*60
$GPVTG,,T,,M,1.611,N,2.984,K,A*23
$GPGGA,014945.00,3342.91076,S,15109.67060,E,1,05,1.72,130.2,M,19.7,M,,*46
$GPGSA,A,3,09,28,07,19,11,,,,,,,,2.70,1.72,2.08*05
$GPGSV,4,1,14,01,14,076,23,04,11,107,24,05,07,281,,07,40,081,27*7F
$GPGSV,4,2,14,09,13,016,15,10,01,330,,11,25,099,11,13,62,258,*7C
$GPGSV,4,3,14,15,00,215,,17,38,350,09,19,12,141,12,26,36,229,*7F
$GPGSV,4,4,14,28,66,226,14,30,67,126,08*7A
$GPGLL,3342.91076,S,15109.67060,E,014945.00,A,A*7D
$GPRMC,014946.00,A,3342.91145,S,15109.66872,E,1.552,,141214,,,A*6C
$GPVTG,,T,,M,1.552,N,2.875,K,A*28
$GPGGA,014946.00,3342.91145,S,15109.66872,E,1,05,1.65,130.4,M,19.7,M,,*4E
$GPGSA,A,3,09,28,07,19,30,,,,,,,,2.36,1.65,1.69*06
$GPGSV,4,1,14,01,14,076,23,04,11,107,24,05,07,281,,07,40,081,27*7F
$GPGSV,4,2,14,09,13,016,15,10,01,330,,11,25,099,11,13,62,258,*7C
$GPGSV,4,3,14,15,00,215,,17,38,350,09,19,12,141,12,26,36,229,*7F
$GPGSV,4,4,14,28,66,226,12,30,67,126,07*73
$GPGLL,3342.91145,S,15109.66872,E,014946.00,A,A*75
$GPRMC,014947.00,A,3342.91487,S,15109.67110,E,2.451,,141214,,,A*6B
$GPVTG,,T,,M,2.451,N,4.540,K,A*24
$GPGGA,014947.00,3342.91487,S,15109.67110,E,1,06,1.52,130.5,M,19.7,M,,*4E
$GPGSA,A,3,09,28,07,19,30,17,,,,,,,2.27,1.52,1.68*05
$GPGSV,4,1,14,01,15,077,22,04,11,107,23,05,07,281,,07,40,081,27*79
$GPGSV,4,2,14,09,13,016,16,10,01,330,,11,25,099,09,13,62,258,*76
$GPGSV,4,3,14,15,00,215,,17,38,350,10,19,12,141,12,26,36,229,*77
$GPGSV,4,4,14,28,66,226,13,30,67,126,07*72
$GPGLL,3342.91487,S,15109.67110,E,014947.00,A,A*73
$GPRMC,014948.00,A,3342.91718,S,15109.67452,E,3.015,,141214,,,A*67
$GPVTG,,T,,M,3.015,N,5.585,K,A*29
$GPGGA,014948.00,3342.91718,S,15109.67452,E,1,06,1.61,130.5,M,19.7,M,,*47
$GPGSA,A,3,09,28,07,19,30,17,,,,,,,2.63,1.61,2.08*00
$GPGSV,4,1,14,01,15,077,23,04,11,107,24,05,07,281,,07,40,081,27*7F
$GPGSV,4,2,14,09,13,016,16,10,01,330,,11,25,099,,13,62,258,*7F
$GPGSV,4,3,14,15,00,215,,17,38,350,11,19,12,141,13,26,36,229,*77
$GPGSV,4,4,14,28,66,226,12,30,67,126,08*7C
$GPGLL,3342.91718,S,15109.67452,E,014948.00,A,A*7A
$GPRMC,014949.00,A,3342.91911,S,15109.67796,E,3.636,,141214,,,A*6D
$GPVTG,,T,,M,3.636,N,6.734,K,A*25
$GPGGA,014949.00,3342.91911,S,15109.67796,E,1,06,1.61,130.4,M,19.7,M,,*4B
$GPGSA,A,3,09,28,07,19,30,17,,,,,,,2.63,1.61,2.08*00
$GPGSV,4,1,14,01,15,077,24,04,11,107,24,05,07,281,,07,40,081,27*78
$GPGSV,4,2,14,09,13,016,17,10,01,330,,11,25,099,,13,62,258,22*7E
$GPGSV,4,3,14,15,00,215,,17,38,350,11,19,12,141,13,26,36,229,26*73
$GPGSV,4,4,14,28,66,226,14,30,67,126,08*7A
$GPGLL,3342.91911,S,15109.67796,E,014949.00,A,A*77
$GPRMC,014950.00,A,3342.92101,S,15109.67920,E,3.809,85.42,141214,,,A*4B
$GPVTG,85.42,T,,M,3.809,N,7.055,K,A*03
$GPGGA,014950.00,3342.92101,S,15109.67920,E,1,07,1.61,130.4,M,19.7,M,,*4B
$GPGSA,A,3,09,28,07,19,11,30,17,,,,,,2.63,1.61,2.08*00
$GPGSV,4,1,14,01,15,077,24,04,11,107,23,05,07,281,,07,40,081,27*7F
$GPGSV,4,2,14,09,13,016,15,10,01,330,,11,25,099,12,13,62,258,19*77
$GPGSV,4,3,14,15,00,215,,17,38,350,10,19,12,141,13,26,36,229,22*76
$GPGSV,4,4,14,28,66,226,15,30,67,126,08*7B
$GPGLL,3342.92101,S,15109.67920,E,014950.00,A,A*76
$GPRMC,014951.00,A,3342.92262,S,15109.67981,E,3.761,123.29,141214,,,A*76
$GPVTG,123.29,T,,M,3.761,N,6.965,K,A*39
$GPGGA,014951.00,3342.92262,S,15109.67981,E,1,07,1.61,130.3,M,19.7,M,,*40
$GPGSA,A,3,09,28,07,19,11,30,17,,,,,,2.63,1.61,2.08*00
$GPGSV,4,1,14,01,15,077,25,04,11,107,23,05,07,281,,07,40,081,28*71
$GPGSV,4,2,14,09,13,016,16,10,01,330,,11,25,099,13,13,62,258,17*7B
$GPGSV,4,3,14,15,00,215,,17,38,350,10,19,12,141,13,26,36,229,19*7E
$GPGSV,4,4,14,28,66,226,16,30,67,126,07*77
$GPGLL,3342.92262,S,15109.67981,E,014951.00,A,A*7A
$GPRMC,014952.00,A,3342.92448,S,15109.68040,E,4.054,146.37,141214,,,A*7A
$GPVTG,146.37,T,,M,4.054,N,7.507,K,A*3A
$GPGGA,014952.00,3342.92448,S,15109.68040,E,1,07,1.61,130.2,M,19.7,M,,*47
$GPGSA,A,3,09,28,07,19,11,30,17,,,,,,2.63,1.61,2.08*00
$GPGSV,4,1,14,01,15,077,24,04,11,107,23,05,07,281,,07,40,081,28*70
$GPGSV,4,2,14,09,13,016,16,10,01,330,,11,25,099,11,13,62,258,13*7D
$GPGSV,4,3,14,15,00,215,,17,38,350,08,19,12,141,09,26,36,229,*74
$GPGSV,4,4,14,28,66,226,14,30,67,126,08*7A
$GPGLL,3342.92448,S,15109.68040,E,014952.00,A,A*7C
$GPRMC,014953.00,A,3342.92645,S,15109.68096,E,4.324,160.08,141214,,,A*73
$GPVTG,160.08,T,,M,4.324,N,8.009,K,A*32
$GPGGA,014953.00,3342.92645,S,15109.68096,E,1,06,1.61,130.0,M,19.7,M,,*41
$GPGSA,A,3,09,28,07,19,30,17,,,,,,,2.63,1.61,2.08*00
$GPGSV,4,1,14,01,15,077,24,04,11,107,23,05,07,281,,07,39,081,27*71
$GPGSV,4,2,14,09,13,016,15,10,01,330,,11,25,099,09,13,62,258,09*7C
$GPGSV,4,3,14,15,00,215,,17,38,350,08,19,12,141,09,26,36,229,*74
$GPGSV,4,4,14,28,66,226,13,30,67,126,08*7D
$GPGLL,3342.92645,S,15109.68096,E,014953.00,A,A*79
$GPRMC,014954.00,A,3342.92680,S,15109.68092,E,3.905,165.03,141214,,,A*79
$GPVTG,165.03,T,,M,3.905,N,7.233,K,A*36
$GPGGA,014954.00,3342.92680,S,15109.68092,E,1,05,1.97,130.1,M,19.7,M,,*40
$GPGSA,A,2,09,28,07,19,17,,,,,,,,2.21,1.97,1.00*06
$GPGSV,4,1,14,01,15,077,24,04,11,107,23,05,07,281,,07,39,081,28*7E
$GPGSV,4,2,14,09,13,016,16,10,01,330,,11,25,099,09,13,62,258,08*7E
$GPGSV,4,3,14,15,00,215,,17,38,350,08,19,12,141,09,26,36,229,*74
$GPGSV,4,4,14,28,66,226,13,30,67,126,*75
$GPGLL,3342.92680,S,15109.68092,E,014954.00,A,A*73
$GPRMC,014955.00,A,3342.92623,S,15109.68065,E,2.781,,141214,,,A*65
$GPVTG,,T,,M,2.781,N,5.150,K,A*2E
$GPGGA,014955.00,3342.92623,S,15109.68065,E,1,06,1.97,130.0,M,19.7,M,,*42
$GPGSA,A,2,09,28,07,19,11,17,,,,,,,2.21,1.97,1.00*06
$GPGSV,4,1,14,01,15,077,25,04,11,107,23,05,07,281,,07,39,081,28*7F
$GPGSV,4,2,14,09,13,016,17,10,01,330,,11,25,099,10,13,62,258,07*78
$GPGSV,4,3,14,15,00,215,,17,38,350,08,19,12,141,09,26,36,229,*74
$GPGSV,4,4,14,28,66,226,14,30,67,126,04*76
$GPGLL,3342.92623,S,15109.68065,E,014955.00,A,A*73
$GPRMC,014956.00,A,3342.92600,S,15109.68100,E,2.557,,141214,,,A*6C
$GPVTG,,T,,M,2.557,N,4.736,K,A*20
$GPGGA,014956.00,3342.92600,S,15109.68100,E,1,06,1.97,130.0,M,19.7,M,,*42
$GPGSA,A,2,09,28,07,19,11,17,,,,,,,2.21,1.97,1.00*06
$GPGSV,4,1,14,01,15,077,25,04,11,107,23,05,07,281,,07,39,081,29*7E
